[{"type": "Feature", "id": "228", "geometry": {"type": "Point", "coordinates": [-81.86309699999998, 40.27985800000005]}, "properties": {"Facility_N": "WestRock CP, LLC", "City": "COSHOCTON", "State": "OH", "Latitude": 40.279858, "Longitude": -81.863097, "Industry_T": "Pulp and Paper", "CO2_Emissi": 36.7}}, {"type": "Feature", "id": "397", "geometry": {"type": "Point", "coordinates": [-84.18671799999998, 39.652127000000064]}, "properties": {"Facility_N": "APPVION, INC. WEST CARROLLTON", "City": "WEST CARROLLTON", "State": "OH", "Latitude": 39.652127, "Longitude": -84.186718, "Industry_T": "Pulp and Paper", "CO2_Emissi": 158.3}}, {"type": "Feature", "id": "460", "geometry": {"type": "Point", "coordinates": [-89.83166299999993, 44.423280000000034]}, "properties": {"Facility_N": "WATER QUALITY CENTER", "City": "WISCONSIN RAPIDS", "State": "WI", "Latitude": 44.42328, "Longitude": -89.831663, "Industry_T": "Pulp and Paper,Waste", "CO2_Emissi": 314.3}}, {"type": "Feature", "id": "642", "geometry": {"type": "Point", "coordinates": [-122.96027699999996, 45.28833300000008]}, "properties": {"Facility_N": "WestRock Northwest LLC - Newberg Mill", "City": "NEWBERG", "State": "OR", "Latitude": 45.288333, "Longitude": -122.960277, "Industry_T": "Pulp and Paper", "CO2_Emissi": 2558.7}}, {"type": "Feature", "id": "932", "geometry": {"type": "Point", "coordinates": [-86.25399999999996, 45.96850000000006]}, "properties": {"Facility_N": "UP Paper LLC", "City": "MANISTIQUE", "State": "MI", "Latitude": 45.9685, "Longitude": -86.254, "Industry_T": "Pulp and Paper,Waste", "CO2_Emissi": 10617.9}}, {"type": "Feature", "id": "981", "geometry": {"type": "Point", "coordinates": [-89.07919999999996, 36.94610000000006]}, "properties": {"Facility_N": "Wickliffe Paper Company", "City": "Wickliffe", "State": "KY", "Latitude": 36.9461, "Longitude": -89.0792, "Industry_T": "Pulp and Paper,Suppliers of CO2,Waste", "CO2_Emissi": 11579.0}}, {"type": "Feature", "id": "1121", "geometry": {"type": "Point", "coordinates": [-87.93640999999997, 36.08337100000006]}, "properties": {"Facility_N": "Hood Container Corporation", "City": "WAVERLY", "State": "TN", "Latitude": 36.083371, "Longitude": -87.93641, "Industry_T": "Pulp and Paper,Waste", "CO2_Emissi": 15347.5}}, {"type": "Feature", "id": "1178", "geometry": {"type": "Point", "coordinates": [-89.82723799999997, 44.39458300000007]}, "properties": {"Facility_N": "WISCONSIN RAPIDS PAPER MILL", "City": "WISCONSIN RAPIDS", "State": "WI", "Latitude": 44.394583, "Longitude": -89.827238, "Industry_T": "Pulp and Paper", "CO2_Emissi": 17005.4}}, {"type": "Feature", "id": "1191", "geometry": {"type": "Point", "coordinates": [-89.28064999999998, 39.55535000000003]}, "properties": {"Facility_N": "Ahlstrom Filtration, LLC.", "City": "Taylorville", "State": "IL", "Latitude": 39.55535, "Longitude": -89.28065, "Industry_T": "Pulp and Paper", "CO2_Emissi": 17437.0}}, {"type": "Feature", "id": "1222", "geometry": {"type": "Point", "coordinates": [-72.60640599999994, 41.77615100000003]}, "properties": {"Facility_N": "Dunn Paper - East Hartford. LLC", "City": "East Hartford", "State": "CT", "Latitude": 41.776151, "Longitude": -72.606406, "Industry_T": "Pulp and Paper", "CO2_Emissi": 18309.9}}, {"type": "Feature", "id": "1225", "geometry": {"type": "Point", "coordinates": [-123.76173699999998, 46.95354300000008]}, "properties": {"Facility_N": "Cosmopolis Pulp Mill", "City": "Cosmopolis", "State": "WA", "Latitude": 46.953543, "Longitude": -123.761737, "Industry_T": "Pulp and Paper,Waste", "CO2_Emissi": 18409.4}}, {"type": "Feature", "id": "1239", "geometry": {"type": "Point", "coordinates": [-82.60467999999997, 39.84719000000007]}, "properties": {"Facility_N": "OHIO PAPERBOARD CORP", "City": "BALTIMORE", "State": "OH", "Latitude": 39.84719, "Longitude": -82.60468, "Industry_T": "Pulp and Paper,Waste", "CO2_Emissi": 18692.7}}, {"type": "Feature", "id": "1295", "geometry": {"type": "Point", "coordinates": [-69.88577199999997, 44.79737200000005]}, "properties": {"Facility_N": "MADISON PAPER INDUSTRIES", "City": "MADISON", "State": "ME", "Latitude": 44.797372, "Longitude": -69.885772, "Industry_T": "Pulp and Paper", "CO2_Emissi": 20062.6}}, {"type": "Feature", "id": "1319", "geometry": {"type": "Point", "coordinates": [-85.64939999999996, 41.79490000000004]}, "properties": {"Facility_N": "White Pigeon Paper Co.", "City": "White Pigeon", "State": "MI", "Latitude": 41.7949, "Longitude": -85.6494, "Industry_T": "Pulp and Paper", "CO2_Emissi": 20907.8}}, {"type": "Feature", "id": "1385", "geometry": {"type": "Point", "coordinates": [-81.47104999999993, 30.662356000000045]}, "properties": {"Facility_N": "RAYONIER PERFORMANCE FIBERS LLC Fernandina Mill", "City": "FERNANDINA BEACH", "State": "FL", "Latitude": 30.662356, "Longitude": -81.47105, "Industry_T": "Pulp and Paper", "CO2_Emissi": 22532.7}}, {"type": "Feature", "id": "1389", "geometry": {"type": "Point", "coordinates": [-84.42380999999995, 39.156990000000064]}, "properties": {"Facility_N": "ROCKTENN CONVERTING CO - Cincinnati MILL", "City": "Cincinnati", "State": "OH", "Latitude": 39.15699, "Longitude": -84.42381, "Industry_T": "Pulp and Paper", "CO2_Emissi": 22628.5}}, {"type": "Feature", "id": "1390", "geometry": {"type": "Point", "coordinates": [-85.33429699999994, 40.35776400000003]}, "properties": {"Facility_N": "Rock-Tenn Converting Company", "City": "Eaton", "State": "IN", "Latitude": 40.357764, "Longitude": -85.334297, "Industry_T": "Pulp and Paper", "CO2_Emissi": 22628.5}}, {"type": "Feature", "id": "1411", "geometry": {"type": "Point", "coordinates": [-87.59807999999998, 45.09936300000004]}, "properties": {"Facility_N": "Menominee Acquisition Corporation, d/b/a Dunn Paper - Menominee", "City": "MENOMINEE", "State": "MI", "Latitude": 45.099363, "Longitude": -87.59808, "Industry_T": "Pulp and Paper", "CO2_Emissi": 22891.1}}, {"type": "Feature", "id": "1449", "geometry": {"type": "Point", "coordinates": [-69.61108999999993, 44.576820000000055]}, "properties": {"Facility_N": "Huhtamaki, Inc.", "City": "Waterville", "State": "ME", "Latitude": 44.57682, "Longitude": -69.61109, "Industry_T": "Pulp and Paper", "CO2_Emissi": 23457.7}}, {"type": "Feature", "id": "1499", "geometry": {"type": "Point", "coordinates": [-79.80900499999996, 34.954075000000046]}, "properties": {"Facility_N": "Cascades Tissue Group North Carolina", "City": "Rockingham", "State": "NC", "Latitude": 34.954075, "Longitude": -79.809005, "Industry_T": "Pulp and Paper", "CO2_Emissi": 24270.2}}, {"type": "Feature", "id": "1512", "geometry": {"type": "Point", "coordinates": [-92.58008299999995, 41.961006000000054]}, "properties": {"Facility_N": "Caraustar Industries dba Tama Paperboard", "City": "Tama", "State": "IA", "Latitude": 41.961006, "Longitude": -92.580083, "Industry_T": "Pulp and Paper", "CO2_Emissi": 24418.1}}, {"type": "Feature", "id": "1524", "geometry": {"type": "Point", "coordinates": [-83.98888999999997, 33.660270000000025]}, "properties": {"Facility_N": "PRATT INDUSTRIES MILL DIV CONYERS", "City": "CONYERS", "State": "GA", "Latitude": 33.66027, "Longitude": -83.98889, "Industry_T": "Pulp and Paper", "CO2_Emissi": 24546.0}}, {"type": "Feature", "id": "1552", "geometry": {"type": "Point", "coordinates": [-75.14821499999994, 40.99944500000004]}, "properties": {"Facility_N": "WESTROCK CONVERTING COMPANY - STROUDSBURG MILL", "City": "DELAWARE WATER GAP", "State": "PA", "Latitude": 40.999445, "Longitude": -75.148215, "Industry_T": "Pulp and Paper", "CO2_Emissi": 24980.1}}, {"type": "Feature", "id": "1562", "geometry": {"type": "Point", "coordinates": [-77.43353999999994, 37.49572000000006]}, "properties": {"Facility_N": "Sonoco Richmond", "City": "Richmond", "State": "VA", "Latitude": 37.49572, "Longitude": -77.43354, "Industry_T": "Pulp and Paper", "CO2_Emissi": 25101.2}}, {"type": "Feature", "id": "1607", "geometry": {"type": "Point", "coordinates": [-75.81434599999994, 41.39027800000008]}, "properties": {"Facility_N": "CASCADES TISSUE GROUP PA RANSOM PLT", "City": "RANSOM", "State": "PA", "Latitude": 41.390278, "Longitude": -75.814346, "Industry_T": "Pulp and Paper", "CO2_Emissi": 25815.2}}, {"type": "Feature", "id": "1614", "geometry": {"type": "Point", "coordinates": [-81.40651899999995, 31.742210000000057]}, "properties": {"Facility_N": "INTERSTATE PAPER LLC", "City": "RICEBORO", "State": "GA", "Latitude": 31.74221, "Longitude": -81.406519, "Industry_T": "Pulp and Paper,Waste", "CO2_Emissi": 25995.7}}, {"type": "Feature", "id": "1665", "geometry": {"type": "Point", "coordinates": [-77.94669799999997, 39.50645700000007]}, "properties": {"Facility_N": "Quad/Graphics, Inc. - Martinsburg Facility", "City": "Martinsburg", "State": "WV", "Latitude": 39.506457, "Longitude": -77.946698, "Industry_T": "Pulp and Paper", "CO2_Emissi": 26817.0}}, {"type": "Feature", "id": "1700", "geometry": {"type": "Point", "coordinates": [-71.84962899999994, 42.560572000000036]}, "properties": {"Facility_N": "NEWARK AMERICA", "City": "FITCHBURG", "State": "MA", "Latitude": 42.560572, "Longitude": -71.849629, "Industry_T": "Pulp and Paper", "CO2_Emissi": 27278.2}}, {"type": "Feature", "id": "1756", "geometry": {"type": "Point", "coordinates": [-79.12807599999996, 37.403741000000025]}, "properties": {"Facility_N": "Seven Hills Paperboard, LLC", "City": "Lynchburg", "State": "VA", "Latitude": 37.403741, "Longitude": -79.128076, "Industry_T": "Pulp and Paper", "CO2_Emissi": 27943.3}}, {"type": "Feature", "id": "1765", "geometry": {"type": "Point", "coordinates": [-91.08876999999995, 45.46343000000007]}, "properties": {"Facility_N": "Cellu Tissue CityForest, LLC, dba Clearwater Paper - Ladysmith", "City": "LADYSMITH", "State": "WI", "Latitude": 45.46343, "Longitude": -91.08877, "Industry_T": "Pulp and Paper", "CO2_Emissi": 28125.8}}, {"type": "Feature", "id": "1782", "geometry": {"type": "Point", "coordinates": [-78.29975999999994, 43.06630000000007]}, "properties": {"Facility_N": "U S GYPSUM - OAKFIELD PLANT", "City": "OAKFIELD", "State": "NY", "Latitude": 43.0663, "Longitude": -78.29976, "Industry_T": "Pulp and Paper", "CO2_Emissi": 28374.6}}, {"type": "Feature", "id": "1800", "geometry": {"type": "Point", "coordinates": [-85.31858099999994, 34.997921000000076]}, "properties": {"Facility_N": "ADM SOUTHERN CELLULOSE PROD.IN", "City": "CHATTANOOGA", "State": "TN", "Latitude": 34.997921, "Longitude": -85.318581, "Industry_T": "Pulp and Paper", "CO2_Emissi": 28608.5}}, {"type": "Feature", "id": "1827", "geometry": {"type": "Point", "coordinates": [-77.79929099999998, 39.31337300000007]}, "properties": {"Facility_N": "OX PAPERBOARD LLC", "City": "HALLTOWN", "State": "WV", "Latitude": 39.313373, "Longitude": -77.799291, "Industry_T": "Pulp and Paper", "CO2_Emissi": 29014.9}}, {"type": "Feature", "id": "1852", "geometry": {"type": "Point", "coordinates": [-82.42317999999995, 43.00475000000006]}, "properties": {"Facility_N": "DUNN PAPER INC.", "City": "PORT HURON", "State": "MI", "Latitude": 43.00475, "Longitude": -82.42318, "Industry_T": "Pulp and Paper", "CO2_Emissi": 29455.9}}, {"type": "Feature", "id": "1854", "geometry": {"type": "Point", "coordinates": [-97.88537999999994, 38.054160000000024]}, "properties": {"Facility_N": "Sonoco Hutchinson", "City": "Hutchinson", "State": "KS", "Latitude": 38.05416, "Longitude": -97.88538, "Industry_T": "Pulp and Paper", "CO2_Emissi": 29529.5}}, {"type": "Feature", "id": "1859", "geometry": {"type": "Point", "coordinates": [-73.63884999999993, 43.304670000000044]}, "properties": {"Facility_N": "SCA Tissue", "City": "South Glens Falls", "State": "NY", "Latitude": 43.30467, "Longitude": -73.63885, "Industry_T": "Pulp and Paper", "CO2_Emissi": 29583.0}}, {"type": "Feature", "id": "1870", "geometry": {"type": "Point", "coordinates": [-88.62284999999997, 44.77561000000003]}, "properties": {"Facility_N": "Little Rapids - Shawano Paper Mill", "City": "Shawano", "State": "WI", "Latitude": 44.77561, "Longitude": -88.62285, "Industry_T": "Pulp and Paper", "CO2_Emissi": 29770.6}}, {"type": "Feature", "id": "1894", "geometry": {"type": "Point", "coordinates": [-73.59238899999997, 43.26805600000006]}, "properties": {"Facility_N": "Irving Tissue, Inc. Fort Edward Facility", "City": "Fort Edward", "State": "NY", "Latitude": 43.268056, "Longitude": -73.592389, "Industry_T": "Pulp and Paper", "CO2_Emissi": 30111.0}}, {"type": "Feature", "id": "1895", "geometry": {"type": "Point", "coordinates": [-75.05433999999997, 40.01463000000007]}, "properties": {"Facility_N": "NEWMAN & CO", "City": "PHILADELPHIA", "State": "PA", "Latitude": 40.01463, "Longitude": -75.05434, "Industry_T": "Pulp and Paper", "CO2_Emissi": 30113.3}}, {"type": "Feature", "id": "1901", "geometry": {"type": "Point", "coordinates": [-87.60699999999997, 45.10800000000006]}, "properties": {"Facility_N": "FIBREK", "City": "MENOMINEE", "State": "MI", "Latitude": 45.108, "Longitude": -87.607, "Industry_T": "Pulp and Paper", "CO2_Emissi": 30181.0}}, {"type": "Feature", "id": "1917", "geometry": {"type": "Point", "coordinates": [-96.80833999999999, 32.74459000000007]}, "properties": {"Facility_N": "WESTROCK (DALLAS MILL)", "City": "DALLAS", "State": "TX", "Latitude": 32.74459, "Longitude": -96.80834, "Industry_T": "Pulp and Paper", "CO2_Emissi": 30551.4}}, {"type": "Feature", "id": "1958", "geometry": {"type": "Point", "coordinates": [-94.35959799999995, 44.87967700000007]}, "properties": {"Facility_N": "3M MAGNETIC TAPE MANUFACTURING DIVISION", "City": "HUTCHINSON", "State": "MN", "Latitude": 44.879677, "Longitude": -94.359598, "Industry_T": "Pulp and Paper", "CO2_Emissi": 31341.0}}, {"type": "Feature", "id": "2019", "geometry": {"type": "Point", "coordinates": [-71.18730799999997, 44.44373800000005]}, "properties": {"Facility_N": "Gorham Paper and Tissue LLC", "City": "GORHAM", "State": "NH", "Latitude": 44.443738, "Longitude": -71.187308, "Industry_T": "Pulp and Paper", "CO2_Emissi": 32379.5}}, {"type": "Feature", "id": "2021", "geometry": {"type": "Point", "coordinates": [-89.95985799999994, 35.15955100000008]}, "properties": {"Facility_N": "MEMPHIS CELLULOSE LLC", "City": "MEMPHIS", "State": "TN", "Latitude": 35.159551, "Longitude": -89.959858, "Industry_T": "Pulp and Paper", "CO2_Emissi": 32388.1}}, {"type": "Feature", "id": "2024", "geometry": {"type": "Point", "coordinates": [-115.12943999999999, 36.230450000000076]}, "properties": {"Facility_N": "Clearwater Paper - Las Vegas", "City": "North Las Vegas", "State": "NV", "Latitude": 36.23045, "Longitude": -115.12944, "Industry_T": "Pulp and Paper", "CO2_Emissi": 32419.8}}, {"type": "Feature", "id": "2039", "geometry": {"type": "Point", "coordinates": [-83.20575999999994, 36.01745000000005]}, "properties": {"Facility_N": "SONOCO - NEWPORT", "City": "NEWPORT", "State": "TN", "Latitude": 36.01745, "Longitude": -83.20576, "Industry_T": "Pulp and Paper", "CO2_Emissi": 32596.6}}, {"type": "Feature", "id": "2084", "geometry": {"type": "Point", "coordinates": [-84.86540999999994, 37.78511000000003]}, "properties": {"Facility_N": "Wausau Paper Towel & Tissue, LLC", "City": "Harrodsburg", "State": "KY", "Latitude": 37.78511, "Longitude": -84.86541, "Industry_T": "Pulp and Paper", "CO2_Emissi": 33450.1}}, {"type": "Feature", "id": "2112", "geometry": {"type": "Point", "coordinates": [-88.10315999999995, 30.713810000000024]}, "properties": {"Facility_N": "MOBILE PAPERBOARD", "City": "MOBILE", "State": "AL", "Latitude": 30.71381, "Longitude": -88.10316, "Industry_T": "Pulp and Paper", "CO2_Emissi": 33875.4}}, {"type": "Feature", "id": "2133", "geometry": {"type": "Point", "coordinates": [-88.14388999999994, 44.87359300000003]}, "properties": {"Facility_N": "ST PAPER LLC", "City": "OCONTO FALLS", "State": "WI", "Latitude": 44.873593, "Longitude": -88.14389, "Industry_T": "Pulp and Paper", "CO2_Emissi": 34292.6}}, {"type": "Feature", "id": "2151", "geometry": {"type": "Point", "coordinates": [-72.37837999999994, 42.60008000000005]}, "properties": {"Facility_N": "ERVING PAPER MILLS INC", "City": "ERVING", "State": "MA", "Latitude": 42.60008, "Longitude": -72.37838, "Industry_T": "Pulp and Paper", "CO2_Emissi": 34481.8}}, {"type": "Feature", "id": "2217", "geometry": {"type": "Point", "coordinates": [-88.44459999999998, 43.62640000000005]}, "properties": {"Facility_N": "Quad/Graphics, Inc. - Lomira Facility", "City": "Lomira", "State": "WI", "Latitude": 43.6264, "Longitude": -88.4446, "Industry_T": "Pulp and Paper", "CO2_Emissi": 35841.9}}, {"type": "Feature", "id": "2291", "geometry": {"type": "Point", "coordinates": [-122.96543899999995, 46.12428300000005]}, "properties": {"Facility_N": "North Pacific Paper Company LLC", "City": "Longview", "State": "WA", "Latitude": 46.124283, "Longitude": -122.965439, "Industry_T": "Pulp and Paper", "CO2_Emissi": 37259.5}}, {"type": "Feature", "id": "2294", "geometry": {"type": "Point", "coordinates": [-88.39310999999998, 44.27290000000005]}, "properties": {"Facility_N": "APPVION - APPLETON PLT", "City": "APPLETON", "State": "WI", "Latitude": 44.2729, "Longitude": -88.39311, "Industry_T": "Pulp and Paper", "CO2_Emissi": 37347.4}}, {"type": "Feature", "id": "2310", "geometry": {"type": "Point", "coordinates": [-72.97609399999999, 44.90994500000005]}, "properties": {"Facility_N": "WestRock Converting Company - Missisquoi Mill", "City": "SHELDON SPRINGS", "State": "VT", "Latitude": 44.909945, "Longitude": -72.976094, "Industry_T": "Pulp and Paper", "CO2_Emissi": 37712.7}}, {"type": "Feature", "id": "2318", "geometry": {"type": "Point", "coordinates": [-87.64983999999998, 45.10477000000003]}, "properties": {"Facility_N": "KIMBERLY-CLARK CORP", "City": "MARINETTE", "State": "WI", "Latitude": 45.10477, "Longitude": -87.64984, "Industry_T": "Pulp and Paper", "CO2_Emissi": 37929.0}}, {"type": "Feature", "id": "2392", "geometry": {"type": "Point", "coordinates": [-85.32760599999995, 35.05828100000008]}, "properties": {"Facility_N": "WESTROCK CONVERTING COMPANY - CHATTANOOGA MILL", "City": "CHATTANOOGA", "State": "TN", "Latitude": 35.058281, "Longitude": -85.327606, "Industry_T": "Pulp and Paper", "CO2_Emissi": 39824.4}}, {"type": "Feature", "id": "2396", "geometry": {"type": "Point", "coordinates": [-88.47555999999997, 44.19391000000007]}, "properties": {"Facility_N": "Cellu Tissue Corporation Neenah, dba Clearwater Paper - Neenah", "City": "NEENAH", "State": "WI", "Latitude": 44.19391, "Longitude": -88.47556, "Industry_T": "Pulp and Paper", "CO2_Emissi": 39876.7}}, {"type": "Feature", "id": "2407", "geometry": {"type": "Point", "coordinates": [-80.12790599999994, 39.495168000000035]}, "properties": {"Facility_N": "Fibrek Recycling U.S. Inc.- Fairmont Division", "City": "FAIRMONT", "State": "WV", "Latitude": 39.495168, "Longitude": -80.127906, "Industry_T": "Pulp and Paper", "CO2_Emissi": 40209.6}}, {"type": "Feature", "id": "2452", "geometry": {"type": "Point", "coordinates": [-112.17285599999997, 41.59779400000008]}, "properties": {"Facility_N": "Procter & Gamble Paper Products", "City": "Bear River City", "State": "UT", "Latitude": 41.597794, "Longitude": -112.172856, "Industry_T": "Pulp and Paper", "CO2_Emissi": 40989.1}}, {"type": "Feature", "id": "2482", "geometry": {"type": "Point", "coordinates": [-76.86756399999996, 41.05702400000007]}, "properties": {"Facility_N": "NGC INDUSTRIES INC", "City": "NEW COLUMBIA", "State": "PA", "Latitude": 41.057024, "Longitude": -76.867564, "Industry_T": "Pulp and Paper", "CO2_Emissi": 41813.1}}, {"type": "Feature", "id": "2498", "geometry": {"type": "Point", "coordinates": [-84.39092599999998, 39.51827000000003]}, "properties": {"Facility_N": "GRAPHIC PACKAGING INT INC", "City": "MIDDLETOWN", "State": "OH", "Latitude": 39.51827, "Longitude": -84.390926, "Industry_T": "Pulp and Paper", "CO2_Emissi": 41977.6}}, {"type": "Feature", "id": "2508", "geometry": {"type": "Point", "coordinates": [-88.00539999999995, 44.52031000000005]}, "properties": {"Facility_N": "GEORGIA PACIFIC CONSUMER PRODUCTS LP", "City": "GREEN BAY", "State": "WI", "Latitude": 44.52031, "Longitude": -88.0054, "Industry_T": "Pulp and Paper,Waste", "CO2_Emissi": 42255.1}}, {"type": "Feature", "id": "2537", "geometry": {"type": "Point", "coordinates": [-77.43749999999994, 37.81810000000007]}, "properties": {"Facility_N": "BEAR ISLAND PAPER COMPANY LLC", "City": "ASHLAND", "State": "VA", "Latitude": 37.8181, "Longitude": -77.4375, "Industry_T": "Pulp and Paper", "CO2_Emissi": 43265.4}}, {"type": "Feature", "id": "2538", "geometry": {"type": "Point", "coordinates": [-70.35360499999996, 43.68340100000006]}, "properties": {"Facility_N": "S D WARREN CO", "City": "WESTBROOK", "State": "ME", "Latitude": 43.683401, "Longitude": -70.353605, "Industry_T": "Pulp and Paper", "CO2_Emissi": 43273.6}}, {"type": "Feature", "id": "2542", "geometry": {"type": "Point", "coordinates": [-95.26749999999998, 36.25000000000006]}, "properties": {"Facility_N": "NGC INDUSTRIES INC", "City": "PRYOR", "State": "OK", "Latitude": 36.25, "Longitude": -95.2675, "Industry_T": "Pulp and Paper", "CO2_Emissi": 43414.2}}, {"type": "Feature", "id": "2563", "geometry": {"type": "Point", "coordinates": [-87.89161999999999, 43.061390000000074]}, "properties": {"Facility_N": "WISCONSIN PAPERBOARD CORP", "City": "MILWAUKEE", "State": "WI", "Latitude": 43.06139, "Longitude": -87.89162, "Industry_T": "Pulp and Paper", "CO2_Emissi": 43896.8}}, {"type": "Feature", "id": "2644", "geometry": {"type": "Point", "coordinates": [-88.45320999999996, 44.19793000000004]}, "properties": {"Facility_N": "U S PAPER MILLS Menasha", "City": "MENASHA", "State": "WI", "Latitude": 44.19793, "Longitude": -88.45321, "Industry_T": "Pulp and Paper", "CO2_Emissi": 45823.5}}, {"type": "Feature", "id": "2693", "geometry": {"type": "Point", "coordinates": [-87.58801999999997, 37.816580000000044]}, "properties": {"Facility_N": "INTERNATIONAL PAPER - HENDERSON MILL", "City": "HENDERSON", "State": "KY", "Latitude": 37.81658, "Longitude": -87.58802, "Industry_T": "Pulp and Paper", "CO2_Emissi": 47412.0}}, {"type": "Feature", "id": "2757", "geometry": {"type": "Point", "coordinates": [-122.80299999999994, 45.84760000000006]}, "properties": {"Facility_N": "Cascades Tissue Group-Oregon, a division of Cascades Holding US Inc", "City": "SAINT HELENS", "State": "OR", "Latitude": 45.8476, "Longitude": -122.803, "Industry_T": "Pulp and Paper", "CO2_Emissi": 49288.8}}, {"type": "Feature", "id": "2782", "geometry": {"type": "Point", "coordinates": [-92.02609999999999, 34.26560000000006]}, "properties": {"Facility_N": "Mondi Bags USA, LLC", "City": "Pine Bluff", "State": "AR", "Latitude": 34.2656, "Longitude": -92.0261, "Industry_T": "Pulp and Paper", "CO2_Emissi": 50112.5}}, {"type": "Feature", "id": "2809", "geometry": {"type": "Point", "coordinates": [-82.56474999999995, 36.54799000000003]}, "properties": {"Facility_N": "DOMTAR PAPER KINGSPORT MILL", "City": "KINGSPORT", "State": "TN", "Latitude": 36.54799, "Longitude": -82.56475, "Industry_T": "Pulp and Paper", "CO2_Emissi": 50785.6}}, {"type": "Feature", "id": "2856", "geometry": {"type": "Point", "coordinates": [-89.56838999999997, 44.48188000000005]}, "properties": {"Facility_N": "NEENAH PAPER INC - WHITING MILL", "City": "STEVENS POINT", "State": "WI", "Latitude": 44.48188, "Longitude": -89.56839, "Industry_T": "Pulp and Paper", "CO2_Emissi": 52542.9}}, {"type": "Feature", "id": "2864", "geometry": {"type": "Point", "coordinates": [-85.82881999999995, 40.79481000000004]}, "properties": {"Facility_N": "PAPERWORKS INDUSTRIES INC", "City": "WABASH", "State": "IN", "Latitude": 40.79481, "Longitude": -85.82882, "Industry_T": "Pulp and Paper", "CO2_Emissi": 52842.2}}, {"type": "Feature", "id": "2889", "geometry": {"type": "Point", "coordinates": [-81.61009999999999, 35.318520000000035]}, "properties": {"Facility_N": "Clearwater Paper - Shelby", "City": "Shelby", "State": "NC", "Latitude": 35.31852, "Longitude": -81.6101, "Industry_T": "Pulp and Paper", "CO2_Emissi": 53764.5}}, {"type": "Feature", "id": "2896", "geometry": {"type": "Point", "coordinates": [-85.20714999999996, 42.323780000000056]}, "properties": {"Facility_N": "WESTROCK CALIFORNIA, INC", "City": "BATTLE CREEK", "State": "MI", "Latitude": 42.32378, "Longitude": -85.20715, "Industry_T": "Pulp and Paper", "CO2_Emissi": 54173.9}}, {"type": "Feature", "id": "2911", "geometry": {"type": "Point", "coordinates": [-88.04853499999996, 30.73619400000007]}, "properties": {"Facility_N": "KIMBERLY-CLARK TISSUE COMPANY", "City": "MOBILE", "State": "AL", "Latitude": 30.736194, "Longitude": -88.048535, "Industry_T": "Pulp and Paper", "CO2_Emissi": 54718.5}}, {"type": "Feature", "id": "2944", "geometry": {"type": "Point", "coordinates": [-123.158436, 44.38238700000005]}, "properties": {"Facility_N": "CASCADE PACIFIC PULP HALSEY PULP MILL", "City": "HALSEY", "State": "OR", "Latitude": 44.382387, "Longitude": -123.158436, "Industry_T": "Pulp and Paper", "CO2_Emissi": 55804.4}}, {"type": "Feature", "id": "2946", "geometry": {"type": "Point", "coordinates": [-85.18728199999998, 42.314981000000046]}, "properties": {"Facility_N": "Graphic Packaging International, Inc.", "City": "BATTLE CREEK", "State": "MI", "Latitude": 42.314981, "Longitude": -85.187282, "Industry_T": "Pulp and Paper", "CO2_Emissi": 55842.0}}, {"type": "Feature", "id": "3033", "geometry": {"type": "Point", "coordinates": [-81.78053999999997, 35.019210000000044]}, "properties": {"Facility_N": "KapStone Kraft Paper Corporation", "City": "Cowpens", "State": "SC", "Latitude": 35.01921, "Longitude": -81.78054, "Industry_T": "Pulp and Paper", "CO2_Emissi": 59053.0}}, {"type": "Feature", "id": "3041", "geometry": {"type": "Point", "coordinates": [-74.13178999999997, 40.90232000000003]}, "properties": {"Facility_N": "MARCAL MANUFACTURING, LLC.", "City": "ELMWOOD PARK", "State": "NJ", "Latitude": 40.90232, "Longitude": -74.13179, "Industry_T": "Pulp and Paper", "CO2_Emissi": 59378.8}}, {"type": "Feature", "id": "3054", "geometry": {"type": "Point", "coordinates": [-75.23679999999996, 40.03363000000007]}, "properties": {"Facility_N": "PAPERWORKS INDUSTRIES INC", "City": "PHILADELPHIA", "State": "PA", "Latitude": 40.03363, "Longitude": -75.2368, "Industry_T": "Pulp and Paper", "CO2_Emissi": 59912.2}}, {"type": "Feature", "id": "3071", "geometry": {"type": "Point", "coordinates": [-117.89691999999997, 33.85964000000007]}, "properties": {"Facility_N": "KIMBERLY CLARK WORLDWIDE INCORPORATED", "City": "FULLERTON", "State": "CA", "Latitude": 33.85964, "Longitude": -117.89692, "Industry_T": "Pulp and Paper", "CO2_Emissi": 60537.4}}, {"type": "Feature", "id": "3141", "geometry": {"type": "Point", "coordinates": [-122.79680599999995, 48.09379300000006]}, "properties": {"Facility_N": "PORT TOWNSEND PAPER CORP", "City": "PORT TOWNSEND", "State": "WA", "Latitude": 48.093793, "Longitude": -122.796806, "Industry_T": "Pulp and Paper", "CO2_Emissi": 64014.4}}, {"type": "Feature", "id": "3142", "geometry": {"type": "Point", "coordinates": [-83.30441999999994, 30.694900000000075]}, "properties": {"Facility_N": "PACKAGING CORP. OF AMERICA", "City": "VALDOSTA", "State": "GA", "Latitude": 30.6949, "Longitude": -83.30442, "Industry_T": "Pulp and Paper,Waste", "CO2_Emissi": 64034.8}}, {"type": "Feature", "id": "3179", "geometry": {"type": "Point", "coordinates": [-90.04411999999996, 35.18367000000006]}, "properties": {"Facility_N": "KTG (USA) Inc.", "City": "Memphis", "State": "TN", "Latitude": 35.18367, "Longitude": -90.04412, "Industry_T": "Pulp and Paper", "CO2_Emissi": 66128.6}}, {"type": "Feature", "id": "3242", "geometry": {"type": "Point", "coordinates": [-90.44775999999996, 45.936570000000074]}, "properties": {"Facility_N": "FLAMBEAU RIVER PAPERS LLC", "City": "PARK FALLS", "State": "WI", "Latitude": 45.93657, "Longitude": -90.44776, "Industry_T": "Pulp and Paper", "CO2_Emissi": 68745.6}}, {"type": "Feature", "id": "3243", "geometry": {"type": "Point", "coordinates": [-84.06909999999993, 32.253100000000074]}, "properties": {"Facility_N": "International Paper - Flint River Mill", "City": "Oglethorpe", "State": "GA", "Latitude": 32.2531, "Longitude": -84.0691, "Industry_T": "Pulp and Paper,Waste", "CO2_Emissi": 68781.7}}, {"type": "Feature", "id": "3245", "geometry": {"type": "Point", "coordinates": [-81.51087999999999, 40.75117000000006]}, "properties": {"Facility_N": "Greif Packaging, LLC", "City": "Massillon", "State": "OH", "Latitude": 40.75117, "Longitude": -81.51088, "Industry_T": "Pulp and Paper", "CO2_Emissi": 69017.3}}, {"type": "Feature", "id": "3254", "geometry": {"type": "Point", "coordinates": [-88.06850999999995, 44.44739000000004]}, "properties": {"Facility_N": "EXPERA SPECIALTY SOLUTIONS - NICOLET MILL", "City": "DEPERE", "State": "WI", "Latitude": 44.44739, "Longitude": -88.06851, "Industry_T": "Pulp and Paper", "CO2_Emissi": 69369.6}}, {"type": "Feature", "id": "3269", "geometry": {"type": "Point", "coordinates": [-87.89050099999997, 34.76630000000006]}, "properties": {"Facility_N": "SCA TISSUE NA BARTON OPERATIONS", "City": "CHEROKEE", "State": "AL", "Latitude": 34.7663, "Longitude": -87.890501, "Industry_T": "Pulp and Paper", "CO2_Emissi": 70237.1}}, {"type": "Feature", "id": "3271", "geometry": {"type": "Point", "coordinates": [-98.50128999999998, 34.59459000000004]}, "properties": {"Facility_N": "REPUBLIC PAPERBOARD CO", "City": "LAWTON", "State": "OK", "Latitude": 34.59459, "Longitude": -98.50129, "Industry_T": "Pulp and Paper", "CO2_Emissi": 70262.7}}, {"type": "Feature", "id": "3292", "geometry": {"type": "Point", "coordinates": [-92.73853999999994, 35.09735500000005]}, "properties": {"Facility_N": "GREEN BAY PACKAGING/ARK KRAFT", "City": "MORRILTON", "State": "AR", "Latitude": 35.097355, "Longitude": -92.73854, "Industry_T": "Pulp and Paper,Waste", "CO2_Emissi": 71201.3}}, {"type": "Feature", "id": "3328", "geometry": {"type": "Point", "coordinates": [-87.99875999999995, 44.52666000000005]}, "properties": {"Facility_N": "GREEN BAY PACKAGING INC MILL DIVISION", "City": "GREEN BAY", "State": "WI", "Latitude": 44.52666, "Longitude": -87.99876, "Industry_T": "Pulp and Paper", "CO2_Emissi": 72906.5}}, {"type": "Feature", "id": "3335", "geometry": {"type": "Point", "coordinates": [-82.44065799999998, 42.98712900000004]}, "properties": {"Facility_N": "E B EDDY PAPER INC", "City": "PORT HURON", "State": "MI", "Latitude": 42.987129, "Longitude": -82.440658, "Industry_T": "Pulp and Paper", "CO2_Emissi": 73234.0}}, {"type": "Feature", "id": "3340", "geometry": {"type": "Point", "coordinates": [-96.44187999999997, 32.741070000000036]}, "properties": {"Facility_N": "Smurfit Kappa Orange County LLC", "City": "Forney", "State": "TX", "Latitude": 32.74107, "Longitude": -96.44188, "Industry_T": "Pulp and Paper", "CO2_Emissi": 73397.0}}, {"type": "Feature", "id": "3346", "geometry": {"type": "Point", "coordinates": [-87.95859999999999, 45.79500000000007]}, "properties": {"Facility_N": "Verso Quinnesec, LLC", "City": "QUINNESEC", "State": "MI", "Latitude": 45.795, "Longitude": -87.9586, "Industry_T": "Pulp and Paper,Waste", "CO2_Emissi": 73637.4}}, {"type": "Feature", "id": "3433", "geometry": {"type": "Point", "coordinates": [-76.91279999999995, 36.680300000000045]}, "properties": {"Facility_N": "International Paper-Franklin Mill", "City": "FRANKLIN", "State": "VA", "Latitude": 36.6803, "Longitude": -76.9128, "Industry_T": "Pulp and Paper,Waste", "CO2_Emissi": 78326.3}}, {"type": "Feature", "id": "3435", "geometry": {"type": "Point", "coordinates": [-76.78309999999993, 35.86280000000005]}, "properties": {"Facility_N": "Domtar Paper Company LLC - Plymouth", "City": "PLYMOUTH", "State": "NC", "Latitude": 35.8628, "Longitude": -76.7831, "Industry_T": "Pulp and Paper,Waste", "CO2_Emissi": 78691.6}}, {"type": "Feature", "id": "3436", "geometry": {"type": "Point", "coordinates": [-88.45502599999998, 44.20527800000008]}, "properties": {"Facility_N": "SCA TISSUE NORTH AMERICA LLC - MENASHA PAPER MILL", "City": "MENASHA", "State": "WI", "Latitude": 44.205278, "Longitude": -88.455026, "Industry_T": "Pulp and Paper", "CO2_Emissi": 78750.5}}, {"type": "Feature", "id": "3469", "geometry": {"type": "Point", "coordinates": [-81.15902799999998, 32.15542400000004]}, "properties": {"Facility_N": "International Paper-Port Wentworth", "City": "Port Wentworth", "State": "GA", "Latitude": 32.155424, "Longitude": -81.159028, "Industry_T": "Pulp and Paper", "CO2_Emissi": 80569.3}}, {"type": "Feature", "id": "3475", "geometry": {"type": "Point", "coordinates": [-79.78499999999997, 34.605000000000075]}, "properties": {"Facility_N": "Marlboro Paper Mill", "City": "Bennettsville", "State": "SC", "Latitude": 34.605, "Longitude": -79.785, "Industry_T": "Pulp and Paper", "CO2_Emissi": 80916.4}}, {"type": "Feature", "id": "3476", "geometry": {"type": "Point", "coordinates": [-84.33064999999993, 35.77167000000003]}, "properties": {"Facility_N": "KIMBERLY-CLARK CORP.", "City": "LOUDON", "State": "TN", "Latitude": 35.77167, "Longitude": -84.33065, "Industry_T": "Pulp and Paper", "CO2_Emissi": 80917.7}}, {"type": "Feature", "id": "3484", "geometry": {"type": "Point", "coordinates": [-88.45804599999997, 33.36081500000006]}, "properties": {"Facility_N": "International Paper - Columbus Mill", "City": "COLUMBUS", "State": "MS", "Latitude": 33.360815, "Longitude": -88.458046, "Industry_T": "Pulp and Paper,Waste", "CO2_Emissi": 81268.1}}, {"type": "Feature", "id": "3511", "geometry": {"type": "Point", "coordinates": [-89.04535299999998, 31.244429000000025]}, "properties": {"Facility_N": "LEAF RIVER CELLULOSE LLC", "City": "NEW AUGUSTA", "State": "MS", "Latitude": 31.244429, "Longitude": -89.045353, "Industry_T": "Pulp and Paper,Waste", "CO2_Emissi": 82747.6}}, {"type": "Feature", "id": "3527", "geometry": {"type": "Point", "coordinates": [-89.58391999999998, 44.519420000000025]}, "properties": {"Facility_N": "STEVENS POINT MILL", "City": "STEVENS POINT", "State": "WI", "Latitude": 44.51942, "Longitude": -89.58392, "Industry_T": "Pulp and Paper", "CO2_Emissi": 83551.5}}, {"type": "Feature", "id": "3529", "geometry": {"type": "Point", "coordinates": [-87.30448999999999, 37.82256000000007]}, "properties": {"Facility_N": "KIMBERLY-CLARK CORP OWENSBORO OPERATIONS", "City": "OWENSBORO", "State": "KY", "Latitude": 37.82256, "Longitude": -87.30449, "Industry_T": "Pulp and Paper", "CO2_Emissi": 83775.6}}, {"type": "Feature", "id": "3594", "geometry": {"type": "Point", "coordinates": [-84.64759499999997, 33.819375000000036]}, "properties": {"Facility_N": "CARAUSTAR MILL GROUP INC AUSTELL BOXBOARD MILLS", "City": "AUSTELL", "State": "GA", "Latitude": 33.819375, "Longitude": -84.647595, "Industry_T": "Pulp and Paper", "CO2_Emissi": 87656.9}}, {"type": "Feature", "id": "3597", "geometry": {"type": "Point", "coordinates": [-77.12419999999997, 35.20810000000006]}, "properties": {"Facility_N": "International Paper - New Bern Mill", "City": "Vanceboro", "State": "NC", "Latitude": 35.2081, "Longitude": -77.1242, "Industry_T": "Pulp and Paper,Waste", "CO2_Emissi": 87669.9}}, {"type": "Feature", "id": "3624", "geometry": {"type": "Point", "coordinates": [-122.61483599999997, 45.35639700000007]}, "properties": {"Facility_N": "WEST LINN PAPER COMPANY", "City": "WEST LINN", "State": "OR", "Latitude": 45.356397, "Longitude": -122.614836, "Industry_T": "Pulp and Paper", "CO2_Emissi": 89286.7}}, {"type": "Feature", "id": "3650", "geometry": {"type": "Point", "coordinates": [-85.69409999999993, 42.46410000000003]}, "properties": {"Facility_N": "Otsego Paper, Inc.", "City": "OTSEGO", "State": "MI", "Latitude": 42.4641, "Longitude": -85.6941, "Industry_T": "Pulp and Paper", "CO2_Emissi": 90862.5}}, {"type": "Feature", "id": "3658", "geometry": {"type": "Point", "coordinates": [-72.13474999999994, 41.452630000000056]}, "properties": {"Facility_N": "RAND-WHITNEY CONTAINERBOARD LP", "City": "MONTVILLE", "State": "CT", "Latitude": 41.45263, "Longitude": -72.13475, "Industry_T": "Pulp and Paper", "CO2_Emissi": 91454.6}}, {"type": "Feature", "id": "3665", "geometry": {"type": "Point", "coordinates": [-83.63013999999998, 32.77259000000004]}, "properties": {"Facility_N": "GRAPHIC PACKAGING INTERNATIONAL", "City": "MACON", "State": "GA", "Latitude": 32.77259, "Longitude": -83.63014, "Industry_T": "Pulp and Paper,Waste", "CO2_Emissi": 92080.2}}, {"type": "Feature", "id": "3666", "geometry": {"type": "Point", "coordinates": [-78.40517499999999, 40.338730000000055]}, "properties": {"Facility_N": "APPLETON ROARING SPRING PAPER MFG", "City": "ROARING SPRING", "State": "PA", "Latitude": 40.33873, "Longitude": -78.405175, "Industry_T": "Pulp and Paper", "CO2_Emissi": 92083.1}}, {"type": "Feature", "id": "3719", "geometry": {"type": "Point", "coordinates": [-122.95299799999998, 44.05517900000007]}, "properties": {"Facility_N": "International Paper - Springfield Mill", "City": "SPRINGFIELD", "State": "OR", "Latitude": 44.055179, "Longitude": -122.952998, "Industry_T": "Pulp and Paper", "CO2_Emissi": 94789.5}}, {"type": "Feature", "id": "3739", "geometry": {"type": "Point", "coordinates": [-78.91029999999995, 37.510800000000074]}, "properties": {"Facility_N": "GREIF RIVERVILLE LLC", "City": "Riverville", "State": "VA", "Latitude": 37.5108, "Longitude": -78.9103, "Industry_T": "Pulp and Paper,Waste", "CO2_Emissi": 96041.5}}, {"type": "Feature", "id": "3777", "geometry": {"type": "Point", "coordinates": [-91.90740599999998, 34.221569000000045]}, "properties": {"Facility_N": "EVERGREEN PACKAGING-PINE BLUFF", "City": "PINE BLUFF", "State": "AR", "Latitude": 34.221569, "Longitude": -91.907406, "Industry_T": "Pulp and Paper,Waste", "CO2_Emissi": 99261.9}}, {"type": "Feature", "id": "3786", "geometry": {"type": "Point", "coordinates": [-87.03360999999995, 41.48127000000005]}, "properties": {"Facility_N": "Pratt Paper (IN) LLC", "City": "Valparaiso", "State": "IN", "Latitude": 41.48127, "Longitude": -87.03361, "Industry_T": "Pulp and Paper", "CO2_Emissi": 100830.2}}, {"type": "Feature", "id": "3788", "geometry": {"type": "Point", "coordinates": [-93.64416699999998, 32.37361100000004]}, "properties": {"Facility_N": "Pratt Industries", "City": "Shreveport", "State": "LA", "Latitude": 32.373611, "Longitude": -93.644167, "Industry_T": "Pulp and Paper", "CO2_Emissi": 100943.7}}, {"type": "Feature", "id": "3795", "geometry": {"type": "Point", "coordinates": [-89.85769999999997, 30.77660000000003]}, "properties": {"Facility_N": "INTERNATIONAL PAPER - BOGALUSA MILL", "City": "BOGALUSA", "State": "LA", "Latitude": 30.7766, "Longitude": -89.8577, "Industry_T": "Pulp and Paper", "CO2_Emissi": 101599.8}}, {"type": "Feature", "id": "3814", "geometry": {"type": "Point", "coordinates": [-84.40501999999998, 39.52100000000007]}, "properties": {"Facility_N": "Wausau Paper Towel & Tissue, LLC", "City": "Middletown", "State": "OH", "Latitude": 39.521, "Longitude": -84.40502, "Industry_T": "Pulp and Paper", "CO2_Emissi": 103689.5}}, {"type": "Feature", "id": "3830", "geometry": {"type": "Point", "coordinates": [-86.68579299999999, 37.89484700000003]}, "properties": {"Facility_N": "DOMTAR PAPER CO LLC HAWESVILLE MILL", "City": "HAWESVILLE", "State": "KY", "Latitude": 37.894847, "Longitude": -86.685793, "Industry_T": "Pulp and Paper,Waste", "CO2_Emissi": 104749.7}}, {"type": "Feature", "id": "3837", "geometry": {"type": "Point", "coordinates": [-85.78783399999998, 34.86454200000003]}, "properties": {"Facility_N": "WestRock CP, LLC - Stevenson Mill", "City": "STEVENSON", "State": "AL", "Latitude": 34.864542, "Longitude": -85.787834, "Industry_T": "Pulp and Paper,Waste", "CO2_Emissi": 105504.4}}, {"type": "Feature", "id": "3854", "geometry": {"type": "Point", "coordinates": [-95.91816699999998, 35.96916700000003]}, "properties": {"Facility_N": "KIMBERLY-CLARK CORP-JENKS FAC", "City": "JENKS", "State": "OK", "Latitude": 35.969167, "Longitude": -95.918167, "Industry_T": "Pulp and Paper", "CO2_Emissi": 106850.7}}, {"type": "Feature", "id": "3900", "geometry": {"type": "Point", "coordinates": [-74.20060999999998, 40.586290000000076]}, "properties": {"Facility_N": "PRATT PAPER (NY), INC.", "City": "STATEN ISLAND", "State": "NY", "Latitude": 40.58629, "Longitude": -74.20061, "Industry_T": "Pulp and Paper", "CO2_Emissi": 112214.0}}, {"type": "Feature", "id": "3905", "geometry": {"type": "Point", "coordinates": [-77.45585999999997, 41.127230000000054]}, "properties": {"Facility_N": "FIRST QUALITY TISSUE/LOCK HAVEN PLT", "City": "LOCK HAVEN", "State": "PA", "Latitude": 41.12723, "Longitude": -77.45586, "Industry_T": "Pulp and Paper,Waste", "CO2_Emissi": 112857.0}}, {"type": "Feature", "id": "3927", "geometry": {"type": "Point", "coordinates": [-92.43673299999995, 46.723918000000026]}, "properties": {"Facility_N": "SAPPI CLOQUET LLC", "City": "CLOQUET", "State": "MN", "Latitude": 46.723918, "Longitude": -92.436733, "Industry_T": "Pulp and Paper,Waste", "CO2_Emissi": 116177.2}}, {"type": "Feature", "id": "3933", "geometry": {"type": "Point", "coordinates": [-78.23472799999996, 40.678953000000035]}, "properties": {"Facility_N": "TEAM TEN LLC DBA AMER EAGLE PAPER MILLS", "City": "TYRONE", "State": "PA", "Latitude": 40.678953, "Longitude": -78.234728, "Industry_T": "Pulp and Paper", "CO2_Emissi": 117170.9}}, {"type": "Feature", "id": "3938", "geometry": {"type": "Point", "coordinates": [-122.43289999999996, 47.267146000000025]}, "properties": {"Facility_N": "WestRock Tacoma Mill", "City": "TACOMA", "State": "WA", "Latitude": 47.267146, "Longitude": -122.4329, "Industry_T": "Pulp and Paper", "CO2_Emissi": 117369.9}}, {"type": "Feature", "id": "3973", "geometry": {"type": "Point", "coordinates": [-119.18397999999996, 34.14176000000003]}, "properties": {"Facility_N": "New-Indy Oxnard LLC", "City": "OXNARD", "State": "CA", "Latitude": 34.14176, "Longitude": -119.18398, "Industry_T": "Pulp and Paper", "CO2_Emissi": 122317.3}}, {"type": "Feature", "id": "3974", "geometry": {"type": "Point", "coordinates": [-121.94147999999996, 37.36815000000007]}, "properties": {"Facility_N": "Graphic Packaging International Inc", "City": "Santa Clara", "State": "CA", "Latitude": 37.36815, "Longitude": -121.94148, "Industry_T": "Pulp and Paper", "CO2_Emissi": 123281.7}}, {"type": "Feature", "id": "3976", "geometry": {"type": "Point", "coordinates": [-91.32067699999999, 30.709033000000034]}, "properties": {"Facility_N": "Hood Container of Louisiana, LLC", "City": "Saint Francisville", "State": "LA", "Latitude": 30.709033, "Longitude": -91.320677, "Industry_T": "Pulp and Paper", "CO2_Emissi": 123719.0}}, {"type": "Feature", "id": "3985", "geometry": {"type": "Point", "coordinates": [-81.84286999999995, 31.658978000000047]}, "properties": {"Facility_N": "RAYONIER PERFORMANCE FIBERS LLC, JESUP MILL", "City": "JESUP", "State": "GA", "Latitude": 31.658978, "Longitude": -81.84287, "Industry_T": "Pulp and Paper", "CO2_Emissi": 124625.2}}, {"type": "Feature", "id": "3997", "geometry": {"type": "Point", "coordinates": [-93.19340999999997, 44.95966000000004]}, "properties": {"Facility_N": "WestRock MN Corporation", "City": "SAINT PAUL", "State": "MN", "Latitude": 44.95966, "Longitude": -93.19341, "Industry_T": "Pulp and Paper", "CO2_Emissi": 126427.9}}, {"type": "Feature", "id": "4010", "geometry": {"type": "Point", "coordinates": [-85.57829999999996, 42.30490000000003]}, "properties": {"Facility_N": "Graphic Packaging International, Inc.", "City": "KALAMAZOO", "State": "MI", "Latitude": 42.3049, "Longitude": -85.5783, "Industry_T": "Pulp and Paper", "CO2_Emissi": 128422.4}}, {"type": "Feature", "id": "4013", "geometry": {"type": "Point", "coordinates": [-86.64549999999997, 46.40870000000007]}, "properties": {"Facility_N": "NEENAH PAPER MICHIGAN INC", "City": "MUNISING", "State": "MI", "Latitude": 46.4087, "Longitude": -86.6455, "Industry_T": "Pulp and Paper", "CO2_Emissi": 128620.0}}, {"type": "Feature", "id": "4025", "geometry": {"type": "Point", "coordinates": [-82.68292999999994, 34.45500000000004]}, "properties": {"Facility_N": "First Quality Tissue SE", "City": "Anderson", "State": "SC", "Latitude": 34.455, "Longitude": -82.68293, "Industry_T": "Pulp and Paper", "CO2_Emissi": 130205.2}}, {"type": "Feature", "id": "4048", "geometry": {"type": "Point", "coordinates": [-90.77450799999997, 32.52923000000004]}, "properties": {"Facility_N": "International Paper - Vicksburg Mill", "City": "REDWOOD", "State": "MS", "Latitude": 32.52923, "Longitude": -90.774508, "Industry_T": "Pulp and Paper,Waste", "CO2_Emissi": 133496.9}}, {"type": "Feature", "id": "4059", "geometry": {"type": "Point", "coordinates": [-84.10787199999999, 31.54968400000007]}, "properties": {"Facility_N": "PROCTER & GAMBLE", "City": "ALBANY", "State": "GA", "Latitude": 31.549684, "Longitude": -84.107872, "Industry_T": "Pulp and Paper", "CO2_Emissi": 135135.9}}, {"type": "Feature", "id": "4068", "geometry": {"type": "Point", "coordinates": [-81.89643099999995, 33.41615100000007]}, "properties": {"Facility_N": "KIMBERLY CLARK CORPORATION", "City": "BEECH ISLAND", "State": "SC", "Latitude": 33.416151, "Longitude": -81.896431, "Industry_T": "Pulp and Paper", "CO2_Emissi": 137061.9}}, {"type": "Feature", "id": "4089", "geometry": {"type": "Point", "coordinates": [-89.51444999999995, 37.48133000000007]}, "properties": {"Facility_N": "PROCTER & GAMBLE PAPER PRODUCTS CO", "City": "JACKSON", "State": "MO", "Latitude": 37.48133, "Longitude": -89.51445, "Industry_T": "Pulp and Paper", "CO2_Emissi": 141018.8}}, {"type": "Feature", "id": "4095", "geometry": {"type": "Point", "coordinates": [-87.48069499999997, 31.96974400000005]}, "properties": {"Facility_N": "International Paper - Pine Hill Mill", "City": "PINE HILL", "State": "AL", "Latitude": 31.969744, "Longitude": -87.480695, "Industry_T": "Pulp and Paper,Waste", "CO2_Emissi": 142466.3}}, {"type": "Feature", "id": "4102", "geometry": {"type": "Point", "coordinates": [-70.24029999999993, 44.50470000000007]}, "properties": {"Facility_N": "VERSO ANDROSCOGGIN LLC", "City": "JAY", "State": "ME", "Latitude": 44.5047, "Longitude": -70.2403, "Industry_T": "Pulp and Paper,Waste", "CO2_Emissi": 143429.1}}, {"type": "Feature", "id": "4111", "geometry": {"type": "Point", "coordinates": [-67.40200599999997, 45.15689400000008]}, "properties": {"Facility_N": "WOODLAND PULP LLC", "City": "BAILEYVILLE", "State": "ME", "Latitude": 45.156894, "Longitude": -67.402006, "Industry_T": "Pulp and Paper,Waste", "CO2_Emissi": 144358.1}}, {"type": "Feature", "id": "4120", "geometry": {"type": "Point", "coordinates": [-73.63480799999996, 43.30850700000008]}, "properties": {"Facility_N": "FINCH PAPER LLC", "City": "GLENS FALLS", "State": "NY", "Latitude": 43.308507, "Longitude": -73.634808, "Industry_T": "Pulp and Paper", "CO2_Emissi": 146382.2}}, {"type": "Feature", "id": "4129", "geometry": {"type": "Point", "coordinates": [-80.89419999999996, 34.84560000000005]}, "properties": {"Facility_N": "Resolute FP US Inc. - Catawba Operations", "City": "CATAWBA", "State": "SC", "Latitude": 34.8456, "Longitude": -80.8942, "Industry_T": "Pulp and Paper,Waste", "CO2_Emissi": 148095.3}}, {"type": "Feature", "id": "4133", "geometry": {"type": "Point", "coordinates": [-118.91839999999996, 46.10396000000003]}, "properties": {"Facility_N": "BOISE PAPER", "City": "WALLULA", "State": "WA", "Latitude": 46.10396, "Longitude": -118.9184, "Industry_T": "Pulp and Paper,Suppliers of CO2,Waste", "CO2_Emissi": 148358.5}}, {"type": "Feature", "id": "4141", "geometry": {"type": "Point", "coordinates": [-81.52223299999997, 31.16567500000008]}, "properties": {"Facility_N": "Brunswick Cellulose, Inc.", "City": "Brunswick", "State": "GA", "Latitude": 31.165675, "Longitude": -81.522233, "Industry_T": "Pulp and Paper,Waste", "CO2_Emissi": 149716.7}}, {"type": "Feature", "id": "4147", "geometry": {"type": "Point", "coordinates": [-89.74030299999998, 45.45084900000006]}, "properties": {"Facility_N": "PACKAGING CORPORATION OF AMERICA-TOMAHAWK", "City": "TOMAHAWK", "State": "WI", "Latitude": 45.450849, "Longitude": -89.740303, "Industry_T": "Pulp and Paper,Waste", "CO2_Emissi": 150297.0}}, {"type": "Feature", "id": "4164", "geometry": {"type": "Point", "coordinates": [-73.41005999999999, 41.55869000000007]}, "properties": {"Facility_N": "KIMBERLY-CLARK TISSUE MILL", "City": "NEW MILFORD", "State": "CT", "Latitude": 41.55869, "Longitude": -73.41006, "Industry_T": "Pulp and Paper", "CO2_Emissi": 154249.2}}, {"type": "Feature", "id": "4177", "geometry": {"type": "Point", "coordinates": [-122.92166999999995, 46.10361000000006]}, "properties": {"Facility_N": "LONGVIEW FIBRE PAPER AND PACKAGING, INC", "City": "LONGVIEW", "State": "WA", "Latitude": 46.10361, "Longitude": -122.92167, "Industry_T": "Pulp and Paper", "CO2_Emissi": 156167.9}}, {"type": "Feature", "id": "4200", "geometry": {"type": "Point", "coordinates": [-86.35829999999999, 33.327800000000025]}, "properties": {"Facility_N": "Resolute Forest Product - Coosa Pines Operation", "City": "COOSA PINES", "State": "AL", "Latitude": 33.3278, "Longitude": -86.3583, "Industry_T": "Pulp and Paper,Waste", "CO2_Emissi": 162363.1}}, {"type": "Feature", "id": "4206", "geometry": {"type": "Point", "coordinates": [-93.40670299999994, 48.605458000000056]}, "properties": {"Facility_N": "BOISE WHITE PAPER LLC", "City": "INTERNATIONAL FALLS", "State": "MN", "Latitude": 48.605458, "Longitude": -93.406703, "Industry_T": "Pulp and Paper,Suppliers of CO2", "CO2_Emissi": 163801.1}}, {"type": "Feature", "id": "4212", "geometry": {"type": "Point", "coordinates": [-77.26466399999998, 37.30195400000008]}, "properties": {"Facility_N": "WestRock CP, LLC--Hopewell Mill (Formerly RockTenn)", "City": "HOPEWELL", "State": "VA", "Latitude": 37.301954, "Longitude": -77.264664, "Industry_T": "Pulp and Paper", "CO2_Emissi": 165224.4}}, {"type": "Feature", "id": "4213", "geometry": {"type": "Point", "coordinates": [-91.23809899999998, 33.70579600000008]}, "properties": {"Facility_N": "CLEARWATER PAPER CORP-CYPRESS BEND MILL", "City": "ARKANSAS CITY", "State": "AR", "Latitude": 33.705796, "Longitude": -91.238099, "Industry_T": "Pulp and Paper,Waste", "CO2_Emissi": 165232.1}}, {"type": "Feature", "id": "4225", "geometry": {"type": "Point", "coordinates": [-122.40775799999994, 45.582929000000036]}, "properties": {"Facility_N": "GEORGIA PACIFIC CONSUMER PRODUCTS CAMAS LLC", "City": "CAMAS", "State": "WA", "Latitude": 45.582929, "Longitude": -122.407758, "Industry_T": "Pulp and Paper,Suppliers of CO2,Waste", "CO2_Emissi": 167920.6}}, {"type": "Feature", "id": "4236", "geometry": {"type": "Point", "coordinates": [-93.17363599999999, 31.90532600000006]}, "properties": {"Facility_N": "International Paper - Red River Mill", "City": "CAMPTI", "State": "LA", "Latitude": 31.905326, "Longitude": -93.173636, "Industry_T": "Pulp and Paper,Waste", "CO2_Emissi": 169359.5}}, {"type": "Feature", "id": "4240", "geometry": {"type": "Point", "coordinates": [-76.20462999999995, 43.06385000000006]}, "properties": {"Facility_N": "WestRock - Solvay, LLC", "City": "Syracuse", "State": "NY", "Latitude": 43.06385, "Longitude": -76.20463, "Industry_T": "Pulp and Paper", "CO2_Emissi": 169872.7}}, {"type": "Feature", "id": "4245", "geometry": {"type": "Point", "coordinates": [-94.06963899999994, 33.26440000000002]}, "properties": {"Facility_N": "International Paper - Texarkana Mill", "City": "QUEEN CITY", "State": "TX", "Latitude": 33.2644, "Longitude": -94.069639, "Industry_T": "Pulp and Paper,Waste", "CO2_Emissi": 170444.9}}, {"type": "Feature", "id": "4260", "geometry": {"type": "Point", "coordinates": [-79.35699999999997, 37.53400000000005]}, "properties": {"Facility_N": "GP Big Island, LLC", "City": "BIG ISLAND", "State": "VA", "Latitude": 37.534, "Longitude": -79.357, "Industry_T": "Pulp and Paper,Waste", "CO2_Emissi": 173623.9}}, {"type": "Feature", "id": "4305", "geometry": {"type": "Point", "coordinates": [-88.00309999999996, 44.52410000000003]}, "properties": {"Facility_N": "PROCTER & GAMBLE PAPER PRODUCTS CO", "City": "GREEN BAY", "State": "WI", "Latitude": 44.5241, "Longitude": -88.0031, "Industry_T": "Pulp and Paper", "CO2_Emissi": 185739.6}}, {"type": "Feature", "id": "4333", "geometry": {"type": "Point", "coordinates": [-89.70025299999998, 44.791101000000026]}, "properties": {"Facility_N": "Expera Specialty Solutions LLC - Mosinee Mill", "City": "MOSINEE", "State": "WI", "Latitude": 44.791101, "Longitude": -89.700253, "Industry_T": "Pulp and Paper,Waste", "CO2_Emissi": 192128.1}}, {"type": "Feature", "id": "4349", "geometry": {"type": "Point", "coordinates": [-89.42099999999994, 45.63910000000004]}, "properties": {"Facility_N": "Expera Specialty Solutions, LLC", "City": "RHINELANDER", "State": "WI", "Latitude": 45.6391, "Longitude": -89.421, "Industry_T": "Pulp and Paper", "CO2_Emissi": 195942.6}}, {"type": "Feature", "id": "4350", "geometry": {"type": "Point", "coordinates": [-87.49007299999994, 31.580112000000042]}, "properties": {"Facility_N": "ALABAMA RIVER CELLULOSE, LLC", "City": "PERDUE HILL", "State": "AL", "Latitude": 31.580112, "Longitude": -87.490073, "Industry_T": "Pulp and Paper,Waste", "CO2_Emissi": 196164.9}}, {"type": "Feature", "id": "4351", "geometry": {"type": "Point", "coordinates": [-93.79797999999994, 30.193470000000048]}, "properties": {"Facility_N": "International Paper - Orange Mill", "City": "ORANGE", "State": "TX", "Latitude": 30.19347, "Longitude": -93.79798, "Industry_T": "Pulp and Paper,Waste", "CO2_Emissi": 196291.1}}, {"type": "Feature", "id": "4361", "geometry": {"type": "Point", "coordinates": [-87.89880499999998, 31.492253000000062]}, "properties": {"Facility_N": "BOISE WHITE PAPER MILL", "City": "JACKSON", "State": "AL", "Latitude": 31.492253, "Longitude": -87.898805, "Industry_T": "Pulp and Paper,Suppliers of CO2,Waste", "CO2_Emissi": 198267.1}}, {"type": "Feature", "id": "4376", "geometry": {"type": "Point", "coordinates": [-73.39609999999993, 43.89140000000003]}, "properties": {"Facility_N": "International Paper Ticonderoga Mill", "City": "TICONDEROGA", "State": "NY", "Latitude": 43.8914, "Longitude": -73.3961, "Industry_T": "Pulp and Paper,Waste", "CO2_Emissi": 202128.0}}, {"type": "Feature", "id": "4384", "geometry": {"type": "Point", "coordinates": [-93.37509999999997, 30.862700000000075]}, "properties": {"Facility_N": "BOISE PACKAGING & NEWSPRINT LLC - DERIDDER PAPER MILL", "City": "DERIDDER", "State": "LA", "Latitude": 30.8627, "Longitude": -93.3751, "Industry_T": "Pulp and Paper,Waste", "CO2_Emissi": 204907.1}}, {"type": "Feature", "id": "4388", "geometry": {"type": "Point", "coordinates": [-78.20279999999997, 34.35280000000006]}, "properties": {"Facility_N": "International Paper-Riegelwood", "City": "RIEGELWOOD", "State": "NC", "Latitude": 34.3528, "Longitude": -78.2028, "Industry_T": "Pulp and Paper,Waste", "CO2_Emissi": 205782.2}}, {"type": "Feature", "id": "4403", "geometry": {"type": "Point", "coordinates": [-87.97710399999994, 32.453775000000064]}, "properties": {"Facility_N": "West Rock Mill Company, LLC", "City": "Demopolis", "State": "AL", "Latitude": 32.453775, "Longitude": -87.977104, "Industry_T": "Pulp and Paper,Waste", "CO2_Emissi": 211763.1}}, {"type": "Feature", "id": "4411", "geometry": {"type": "Point", "coordinates": [-84.75689999999997, 35.29640000000006]}, "properties": {"Facility_N": "Resolute Forest Products Calhoun Operation", "City": "CALHOUN", "State": "TN", "Latitude": 35.2964, "Longitude": -84.7569, "Industry_T": "Pulp and Paper,Waste", "CO2_Emissi": 212685.9}}, {"type": "Feature", "id": "4422", "geometry": {"type": "Point", "coordinates": [-86.28460899999999, 44.21336000000008]}, "properties": {"Facility_N": "PACKAGING CORPORATION OF AMERICA", "City": "FILER CITY", "State": "MI", "Latitude": 44.21336, "Longitude": -86.284609, "Industry_T": "Pulp and Paper,Waste", "CO2_Emissi": 216371.9}}, {"type": "Feature", "id": "4428", "geometry": {"type": "Point", "coordinates": [-123.40783599999997, 46.157035000000064]}, "properties": {"Facility_N": "WAUNA MILL", "City": "CLATSKANIE", "State": "OR", "Latitude": 46.157035, "Longitude": -123.407836, "Industry_T": "Pulp and Paper,Waste", "CO2_Emissi": 218544.7}}, {"type": "Feature", "id": "4450", "geometry": {"type": "Point", "coordinates": [-89.89619999999996, 44.31430000000006]}, "properties": {"Facility_N": "DOMTAR A. W. LLC-NEKOOSA", "City": "NEKOOSA", "State": "WI", "Latitude": 44.3143, "Longitude": -89.8962, "Industry_T": "Pulp and Paper,Waste", "CO2_Emissi": 226037.7}}, {"type": "Feature", "id": "4463", "geometry": {"type": "Point", "coordinates": [-117.53932999999995, 34.04807000000005]}, "properties": {"Facility_N": "New-Indy Ontario, LLC", "City": "ONTARIO", "State": "CA", "Latitude": 34.04807, "Longitude": -117.53933, "Industry_T": "Pulp and Paper", "CO2_Emissi": 231244.4}}, {"type": "Feature", "id": "4478", "geometry": {"type": "Point", "coordinates": [-69.64888899999994, 44.70333300000004]}, "properties": {"Facility_N": "SAPPI FINE PAPER (S.D. WARREN ) MILL", "City": "SKOWHEGAN", "State": "ME", "Latitude": 44.703333, "Longitude": -69.648889, "Industry_T": "Pulp and Paper,Waste", "CO2_Emissi": 234263.0}}, {"type": "Feature", "id": "4485", "geometry": {"type": "Point", "coordinates": [-94.06634999999994, 30.338700000000074]}, "properties": {"Facility_N": "WESTROCK TEXAS, L.P.", "City": "EVADALE", "State": "TX", "Latitude": 30.3387, "Longitude": -94.06635, "Industry_T": "Pulp and Paper,Waste", "CO2_Emissi": 236470.0}}, {"type": "Feature", "id": "4490", "geometry": {"type": "Point", "coordinates": [-89.78169999999994, 44.428900000000056]}, "properties": {"Facility_N": "BIRON MILL", "City": "BIRON", "State": "WI", "Latitude": 44.4289, "Longitude": -89.7817, "Industry_T": "Pulp and Paper", "CO2_Emissi": 238262.0}}, {"type": "Feature", "id": "4492", "geometry": {"type": "Point", "coordinates": [-81.95369999999997, 33.32860000000005]}, "properties": {"Facility_N": "International Paper - Augusta Mill", "City": "Augusta", "State": "GA", "Latitude": 33.3286, "Longitude": -81.9537, "Industry_T": "Pulp and Paper,Waste", "CO2_Emissi": 240895.6}}, {"type": "Feature", "id": "4498", "geometry": {"type": "Point", "coordinates": [-82.84485899999999, 32.504129000000034]}, "properties": {"Facility_N": "SP Fiber Technologies Southeast, LLC", "City": "DUBLIN", "State": "GA", "Latitude": 32.504129, "Longitude": -82.844859, "Industry_T": "Pulp and Paper,Waste", "CO2_Emissi": 245556.6}}, {"type": "Feature", "id": "4506", "geometry": {"type": "Point", "coordinates": [-81.60056499999996, 30.42064300000004]}, "properties": {"Facility_N": "WestRock CP, LLC - Seminole Mill (Formerly Smurfit-Stone)", "City": "JACKSONVILLE", "State": "FL", "Latitude": 30.420643, "Longitude": -81.600565, "Industry_T": "Pulp and Paper,Waste", "CO2_Emissi": 248453.6}}, {"type": "Feature", "id": "4540", "geometry": {"type": "Point", "coordinates": [-87.32293799999997, 30.605390000000057]}, "properties": {"Facility_N": "International Paper - Pensacola Mill", "City": "CANTONMENT", "State": "FL", "Latitude": 30.60539, "Longitude": -87.322938, "Industry_T": "Pulp and Paper", "CO2_Emissi": 262162.0}}, {"type": "Feature", "id": "4546", "geometry": {"type": "Point", "coordinates": [-88.26519999999994, 35.044200000000046]}, "properties": {"Facility_N": "Packaging Corporation of America", "City": "COUNCE", "State": "TN", "Latitude": 35.0442, "Longitude": -88.2652, "Industry_T": "Pulp and Paper,Waste", "CO2_Emissi": 266619.9}}, {"type": "Feature", "id": "4554", "geometry": {"type": "Point", "coordinates": [-79.55869999999999, 34.15190000000007]}, "properties": {"Facility_N": "WestRock CP, LLC - Florence Mill", "City": "FLORENCE", "State": "SC", "Latitude": 34.1519, "Longitude": -79.5587, "Industry_T": "Pulp and Paper,Waste", "CO2_Emissi": 269103.4}}, {"type": "Feature", "id": "4559", "geometry": {"type": "Point", "coordinates": [-79.30327899999997, 33.36416600000007]}, "properties": {"Facility_N": "International Paper - Georgetown Mill", "City": "GEORGETOWN", "State": "SC", "Latitude": 33.364166, "Longitude": -79.303279, "Industry_T": "Pulp and Paper,Waste", "CO2_Emissi": 272478.4}}, {"type": "Feature", "id": "4563", "geometry": {"type": "Point", "coordinates": [-116.97374099999996, 46.42958900000008]}, "properties": {"Facility_N": "CLEARWATER PAPER CORP", "City": "LEWISTON", "State": "ID", "Latitude": 46.429589, "Longitude": -116.973741, "Industry_T": "Pulp and Paper,Waste", "CO2_Emissi": 274786.3}}, {"type": "Feature", "id": "4567", "geometry": {"type": "Point", "coordinates": [-85.03109999999998, 32.17500000000007]}, "properties": {"Facility_N": "WestRock Coated Board, LLC", "City": "PHENIX CITY", "State": "AL", "Latitude": 32.175, "Longitude": -85.0311, "Industry_T": "Pulp and Paper,Waste", "CO2_Emissi": 277367.3}}, {"type": "Feature", "id": "4579", "geometry": {"type": "Point", "coordinates": [-88.25179999999995, 44.28290000000004]}, "properties": {"Facility_N": "THILMANY MILL", "City": "KAUKAUNA", "State": "WI", "Latitude": 44.2829, "Longitude": -88.2518, "Industry_T": "Pulp and Paper,Waste", "CO2_Emissi": 284428.7}}, {"type": "Feature", "id": "4580", "geometry": {"type": "Point", "coordinates": [-85.62056599999994, 30.14243300000004]}, "properties": {"Facility_N": "WestRock CP, LLC - Panama City Mill (Formerly RockTenn)", "City": "PANAMA CITY", "State": "FL", "Latitude": 30.142433, "Longitude": -85.620566, "Industry_T": "Pulp and Paper,Waste", "CO2_Emissi": 284834.8}}, {"type": "Feature", "id": "4585", "geometry": {"type": "Point", "coordinates": [-123.93683199999998, 44.614453000000026]}, "properties": {"Facility_N": "GEORGIA-PACIFIC TOLEDO LLC", "City": "TOLEDO", "State": "OR", "Latitude": 44.614453, "Longitude": -123.936832, "Industry_T": "Pulp and Paper,Waste", "CO2_Emissi": 286952.3}}, {"type": "Feature", "id": "4608", "geometry": {"type": "Point", "coordinates": [-77.64139999999998, 36.47690000000006]}, "properties": {"Facility_N": "KapStone Paper and Packaging Corp", "City": "ROANOKE RAPIDS", "State": "NC", "Latitude": 36.4769, "Longitude": -77.6414, "Industry_T": "Pulp and Paper,Waste", "CO2_Emissi": 300317.3}}, {"type": "Feature", "id": "4613", "geometry": {"type": "Point", "coordinates": [-119.14207999999996, 34.20915000000008]}, "properties": {"Facility_N": "PROCTER & GAMBLE PAPER PRODUCTS", "City": "OXNARD", "State": "CA", "Latitude": 34.20915, "Longitude": -119.14208, "Industry_T": "Pulp and Paper", "CO2_Emissi": 302137.4}}, {"type": "Feature", "id": "4620", "geometry": {"type": "Point", "coordinates": [-85.32907099999994, 34.253386000000035]}, "properties": {"Facility_N": "International Paper ROME LINERBOARD MILL", "City": "ROME", "State": "GA", "Latitude": 34.253386, "Longitude": -85.329071, "Industry_T": "Pulp and Paper,Waste", "CO2_Emissi": 304190.6}}, {"type": "Feature", "id": "4621", "geometry": {"type": "Point", "coordinates": [-80.63969999999995, 33.887200000000064]}, "properties": {"Facility_N": "International Paper-Eastover Mill", "City": "EASTOVER", "State": "SC", "Latitude": 33.8872, "Longitude": -80.6397, "Industry_T": "Pulp and Paper,Waste", "CO2_Emissi": 304416.3}}, {"type": "Feature", "id": "4622", "geometry": {"type": "Point", "coordinates": [-81.68021699999997, 29.681083000000058]}, "properties": {"Facility_N": "GEORGIA PACIFIC CONSUMER OPERATIONS LLC", "City": "PALATKA", "State": "FL", "Latitude": 29.681083, "Longitude": -81.680217, "Industry_T": "Pulp and Paper,Waste", "CO2_Emissi": 305010.5}}, {"type": "Feature", "id": "4628", "geometry": {"type": "Point", "coordinates": [-83.52374999999995, 30.06869400000005]}, "properties": {"Facility_N": "Foley Cellulose, LLC", "City": "PERRY", "State": "FL", "Latitude": 30.068694, "Longitude": -83.52375, "Industry_T": "Pulp and Paper,Waste", "CO2_Emissi": 307390.3}}, {"type": "Feature", "id": "4640", "geometry": {"type": "Point", "coordinates": [-86.46669999999995, 32.41670000000005]}, "properties": {"Facility_N": "International Paper-Prattville Mill", "City": "PRATTVILLE", "State": "AL", "Latitude": 32.4167, "Longitude": -86.4667, "Industry_T": "Pulp and Paper,Waste", "CO2_Emissi": 313698.1}}, {"type": "Feature", "id": "4660", "geometry": {"type": "Point", "coordinates": [-80.06629999999996, 34.38700000000006]}, "properties": {"Facility_N": "Sonoco Products Co.", "City": "Hartsville", "State": "SC", "Latitude": 34.387, "Longitude": -80.0663, "Industry_T": "Pulp and Paper,Waste", "CO2_Emissi": 325493.5}}, {"type": "Feature", "id": "4662", "geometry": {"type": "Point", "coordinates": [-78.67669999999998, 41.490800000000036]}, "properties": {"Facility_N": "Domtar Paper Company, LLC", "City": "JOHNSONBURG", "State": "PA", "Latitude": 41.4908, "Longitude": -78.6767, "Industry_T": "Pulp and Paper", "CO2_Emissi": 325702.7}}, {"type": "Feature", "id": "4668", "geometry": {"type": "Point", "coordinates": [-92.72737099999995, 32.276643000000035]}, "properties": {"Facility_N": "WESTROCK CP, LLC - HODGE MILL", "City": "HODGE", "State": "LA", "Latitude": 32.276643, "Longitude": -92.727371, "Industry_T": "Pulp and Paper", "CO2_Emissi": 328132.5}}, {"type": "Feature", "id": "4674", "geometry": {"type": "Point", "coordinates": [-95.10971999999998, 33.999190000000056]}, "properties": {"Facility_N": "International Paper - Valliant Mill", "City": "VALLIANT", "State": "OK", "Latitude": 33.99919, "Longitude": -95.10972, "Industry_T": "Pulp and Paper,Waste", "CO2_Emissi": 329724.8}}, {"type": "Feature", "id": "4682", "geometry": {"type": "Point", "coordinates": [-122.97404799999998, 46.122749000000056]}, "properties": {"Facility_N": "NIPPON DYNAWAVE PACKAGING", "City": "LONGVIEW", "State": "WA", "Latitude": 46.122749, "Longitude": -122.974048, "Industry_T": "Pulp and Paper", "CO2_Emissi": 333587.3}}, {"type": "Feature", "id": "4698", "geometry": {"type": "Point", "coordinates": [-81.12306199999995, 32.10387000000003]}, "properties": {"Facility_N": "INTERNATIONAL PAPER SAVANNA MILL", "City": "SAVANNAH", "State": "GA", "Latitude": 32.10387, "Longitude": -81.123062, "Industry_T": "Pulp and Paper", "CO2_Emissi": 346959.8}}, {"type": "Feature", "id": "4714", "geometry": {"type": "Point", "coordinates": [-86.86939999999998, 32.42500000000007]}, "properties": {"Facility_N": "International Paper-Riverdale Mill", "City": "SELMA", "State": "AL", "Latitude": 32.425, "Longitude": -86.8694, "Industry_T": "Pulp and Paper,Waste", "CO2_Emissi": 353963.7}}, {"type": "Feature", "id": "4736", "geometry": {"type": "Point", "coordinates": [-76.80529999999999, 37.53920000000005]}, "properties": {"Facility_N": "WestRock CP, LLC - West Point Mill", "City": "WEST POINT", "State": "VA", "Latitude": 37.5392, "Longitude": -76.8053, "Industry_T": "Pulp and Paper,Waste", "CO2_Emissi": 369891.9}}, {"type": "Feature", "id": "4748", "geometry": {"type": "Point", "coordinates": [-89.82549999999998, 44.40400000000005]}, "properties": {"Facility_N": "WISCONSIN RAPIDS FIBER AND ENERGY MILL", "City": "WISCONSIN RAPIDS", "State": "WI", "Latitude": 44.404, "Longitude": -89.8255, "Industry_T": "Pulp and Paper,Suppliers of CO2,Waste", "CO2_Emissi": 379083.6}}, {"type": "Feature", "id": "4757", "geometry": {"type": "Point", "coordinates": [-92.15168599999998, 32.48685900000004]}, "properties": {"Facility_N": "GRAPHIC PACKAGING INTERNATIONAL INC - WEST MONROE MILL #31", "City": "WEST MONROE", "State": "LA", "Latitude": 32.486859, "Longitude": -92.151686, "Industry_T": "Pulp and Paper", "CO2_Emissi": 385558.7}}, {"type": "Feature", "id": "4762", "geometry": {"type": "Point", "coordinates": [-90.08389999999997, 31.625853000000063]}, "properties": {"Facility_N": "GEORGIA PACIFIC MONTICELLO LLC", "City": "MONTICELLO", "State": "MS", "Latitude": 31.625853, "Longitude": -90.0839, "Industry_T": "Pulp and Paper,Waste", "CO2_Emissi": 388474.8}}, {"type": "Feature", "id": "4783", "geometry": {"type": "Point", "coordinates": [-87.11140199999994, 31.07712300000003]}, "properties": {"Facility_N": "GEORGIA-PACIFIC BREWTON LLC", "City": "BREWTON", "State": "AL", "Latitude": 31.077123, "Longitude": -87.111402, "Industry_T": "Pulp and Paper,Waste", "CO2_Emissi": 403533.8}}, {"type": "Feature", "id": "4785", "geometry": {"type": "Point", "coordinates": [-91.96556999999996, 33.13937200000004]}, "properties": {"Facility_N": "GEORGIA-PACIFIC, LLC-CROSSETT", "City": "CROSSETT", "State": "AR", "Latitude": 33.139372, "Longitude": -91.96557, "Industry_T": "Pulp and Paper,Waste", "CO2_Emissi": 406200.9}}, {"type": "Feature", "id": "4821", "geometry": {"type": "Point", "coordinates": [-88.03229999999996, 44.492500000000064]}, "properties": {"Facility_N": "GEORGIA-PACIFIC CONSUMER PRODUCTS LP", "City": "GREEN BAY", "State": "WI", "Latitude": 44.4925, "Longitude": -88.0323, "Industry_T": "Pulp and Paper", "CO2_Emissi": 440968.5}}, {"type": "Feature", "id": "4851", "geometry": {"type": "Point", "coordinates": [-87.08977999999996, 45.80479900000006]}, "properties": {"Facility_N": "ESCANABA PAPER COMPANY", "City": "ESCANABA", "State": "MI", "Latitude": 45.804799, "Longitude": -87.08978, "Industry_T": "Pulp and Paper,Suppliers of CO2,Waste", "CO2_Emissi": 457305.4}}, {"type": "Feature", "id": "4867", "geometry": {"type": "Point", "coordinates": [-75.35749999999996, 39.843900000000076]}, "properties": {"Facility_N": "KIMBERLY CLARK PA LLC/CHESTER OPR", "City": "Chester", "State": "PA", "Latitude": 39.8439, "Longitude": -75.3575, "Industry_T": "Pulp and Paper", "CO2_Emissi": 482479.3}}, {"type": "Feature", "id": "4869", "geometry": {"type": "Point", "coordinates": [-94.11242999999996, 33.641080000000045]}, "properties": {"Facility_N": "DOMTAR AW LLC ASHDOWN MILL", "City": "ASHDOWN", "State": "AR", "Latitude": 33.64108, "Longitude": -94.11243, "Industry_T": "Pulp and Paper,Waste", "CO2_Emissi": 483538.4}}, {"type": "Feature", "id": "4883", "geometry": {"type": "Point", "coordinates": [-70.54052499999995, 44.551986000000056]}, "properties": {"Facility_N": "Catalyst Paper Operations Inc. Rumford Division", "City": "RUMFORD", "State": "ME", "Latitude": 44.551986, "Longitude": -70.540525, "Industry_T": "Pulp and Paper", "CO2_Emissi": 499660.2}}, {"type": "Feature", "id": "4889", "geometry": {"type": "Point", "coordinates": [-81.19096099999996, 32.297817000000066]}, "properties": {"Facility_N": "GEORGIA-PACIFIC CONSUMER PRODUCTS LP - SAVANNAH RIVER MILL", "City": "RINCON", "State": "GA", "Latitude": 32.297817, "Longitude": -81.190961, "Industry_T": "Pulp and Paper,Waste", "CO2_Emissi": 504546.3}}, {"type": "Feature", "id": "4898", "geometry": {"type": "Point", "coordinates": [-93.55666999999994, 32.15889000000004]}, "properties": {"Facility_N": "International Paper - Mansfield Mill", "City": "MANSFIELD", "State": "LA", "Latitude": 32.15889, "Longitude": -93.55667, "Industry_T": "Pulp and Paper,Waste", "CO2_Emissi": 512033.9}}, {"type": "Feature", "id": "4910", "geometry": {"type": "Point", "coordinates": [-82.97439999999995, 39.32650000000007]}, "properties": {"Facility_N": "P H Glatfelter Company - Chillicothe Fac", "City": "CHILLICOTHE", "State": "OH", "Latitude": 39.3265, "Longitude": -82.9744, "Industry_T": "Pulp and Paper", "CO2_Emissi": 522149.1}}, {"type": "Feature", "id": "4921", "geometry": {"type": "Point", "coordinates": [-85.09407999999996, 31.16751000000005]}, "properties": {"Facility_N": "GEORGIA-PACIFIC CEDAR SPRINGS LLC", "City": "CEDAR SPRINGS", "State": "GA", "Latitude": 31.16751, "Longitude": -85.09408, "Industry_T": "Pulp and Paper,Waste", "CO2_Emissi": 535237.9}}, {"type": "Feature", "id": "4942", "geometry": {"type": "Point", "coordinates": [-88.00836499999997, 32.21501000000006]}, "properties": {"Facility_N": "GEORGIA-PACIFIC CONSUMER PRODUCTS LP", "City": "PENNINGTON", "State": "AL", "Latitude": 32.21501, "Longitude": -88.008365, "Industry_T": "Pulp and Paper,Waste", "CO2_Emissi": 558304.1}}, {"type": "Feature", "id": "4961", "geometry": {"type": "Point", "coordinates": [-79.05749999999995, 39.47220000000004]}, "properties": {"Facility_N": "Luke Paper Company", "City": "LUKE", "State": "MD", "Latitude": 39.4722, "Longitude": -79.0575, "Industry_T": "Pulp and Paper", "CO2_Emissi": 582691.9}}, {"type": "Feature", "id": "4963", "geometry": {"type": "Point", "coordinates": [-79.96939999999995, 32.89940000000007]}, "properties": {"Facility_N": "KapStone Charleston Kraft LLC", "City": "CHARLESTON", "State": "SC", "Latitude": 32.8994, "Longitude": -79.9694, "Industry_T": "Pulp and Paper,Waste", "CO2_Emissi": 583536.3}}, {"type": "Feature", "id": "4981", "geometry": {"type": "Point", "coordinates": [-81.45793399999997, 30.676393000000076]}, "properties": {"Facility_N": "WestRock CP, LLC - Fernandina Beach Mill (Formerly Smurfit-Stone)", "City": "FERNANDINA BEACH", "State": "FL", "Latitude": 30.676393, "Longitude": -81.457934, "Industry_T": "Pulp and Paper", "CO2_Emissi": 605225.6}}, {"type": "Feature", "id": "4990", "geometry": {"type": "Point", "coordinates": [-76.86639999999994, 39.87170000000003]}, "properties": {"Facility_N": "P.H. Glatfelter Company", "City": "Spring Grove", "State": "PA", "Latitude": 39.8717, "Longitude": -76.8664, "Industry_T": "Pulp and Paper", "CO2_Emissi": 617718.0}}, {"type": "Feature", "id": "5032", "geometry": {"type": "Point", "coordinates": [-76.04259999999994, 41.573000000000036]}, "properties": {"Facility_N": "Procter & Gamble Paper Products", "City": "MEHOOPANY", "State": "PA", "Latitude": 41.573, "Longitude": -76.0426, "Industry_T": "Pulp and Paper,Waste", "CO2_Emissi": 677749.3}}, {"type": "Feature", "id": "5141", "geometry": {"type": "Point", "coordinates": [-91.28116699999998, 30.650644000000057]}, "properties": {"Facility_N": "GEORGIA-PACIFIC PORT HUDSON OPERATIONS", "City": "ZACHARY", "State": "LA", "Latitude": 30.650644, "Longitude": -91.281167, "Industry_T": "Pulp and Paper,Suppliers of CO2,Waste", "CO2_Emissi": 852915.5}}, {"type": "Feature", "id": "5169", "geometry": {"type": "Point", "coordinates": [-95.28691699999996, 35.73977800000006]}, "properties": {"Facility_N": "GEORGIA PACIFIC CONSUMER PRODUCTS LP/MUSKOGEE MILL", "City": "MUSKOGEE", "State": "OK", "Latitude": 35.739778, "Longitude": -95.286917, "Industry_T": "Pulp and Paper,Waste", "CO2_Emissi": 911091.8}}, {"type": "Feature", "id": "5216", "geometry": {"type": "Point", "coordinates": [-79.99459999999993, 37.79970000000003]}, "properties": {"Facility_N": "WestRock Virginia, Covington", "City": "COVINGTON", "State": "VA", "Latitude": 37.7997, "Longitude": -79.9946, "Industry_T": "Pulp and Paper,Waste", "CO2_Emissi": 1031628.7}}, {"type": "Feature", "id": "5243", "geometry": {"type": "Point", "coordinates": [-82.84109999999998, 35.535000000000025]}, "properties": {"Facility_N": "Blue Ridge Paper Products Inc.", "City": "CANTON", "State": "NC", "Latitude": 35.535, "Longitude": -82.8411, "Industry_T": "Pulp and Paper,Waste", "CO2_Emissi": 1101304.8}}]