[{"type": "Feature", "id": "316", "geometry": {"type": "Point", "coordinates": [-92.09169999999995, 43.68610000000007]}, "properties": {"Facility_N": "PRO CORN L L C", "City": "PRESTON", "State": "MN", "Latitude": 43.6861, "Longitude": -92.0917, "Industry_T": "Other,Suppliers of CO2", "CO2_Emissi": 68.3}}, {"type": "Feature", "id": "472", "geometry": {"type": "Point", "coordinates": [-110.42279999999994, 42.501100000000065]}, "properties": {"Facility_N": "Riley Ridge Gas Plant", "City": "Big Piney", "State": "WY", "Latitude": 42.5011, "Longitude": -110.4228, "Industry_T": "Injection of CO2,Petroleum and Natural Gas Systems,Suppliers of CO2", "CO2_Emissi": 347.2}}, {"type": "Feature", "id": "544", "geometry": {"type": "Point", "coordinates": [-109.01755199999997, 37.327458000000036]}, "properties": {"Facility_N": "LINDE LLC CORTEZ PLANT", "City": "CORTEZ", "State": "CO", "Latitude": 37.327458, "Longitude": -109.017552, "Industry_T": "Chemicals,Suppliers of CO2", "CO2_Emissi": 830.5}}, {"type": "Feature", "id": "613", "geometry": {"type": "Point", "coordinates": [-95.03696699999995, 29.70026400000006]}, "properties": {"Facility_N": "E I DU PONT DE NEMOURS LA PORTE PLANT", "City": "LA PORTE", "State": "TX", "Latitude": 29.700264, "Longitude": -95.036967, "Industry_T": "Chemicals,Suppliers of CO2", "CO2_Emissi": 1899.3}}, {"type": "Feature", "id": "778", "geometry": {"type": "Point", "coordinates": [-102.57937099999998, 30.610401000000024]}, "properties": {"Facility_N": "Century Gas Plant", "City": "Fort Stockton", "State": "TX", "Latitude": 30.610401, "Longitude": -102.579371, "Industry_T": "Petroleum and Natural Gas Systems,Suppliers of CO2", "CO2_Emissi": 5981.9}}, {"type": "Feature", "id": "981", "geometry": {"type": "Point", "coordinates": [-89.07919999999996, 36.94610000000006]}, "properties": {"Facility_N": "Wickliffe Paper Company", "City": "Wickliffe", "State": "KY", "Latitude": 36.9461, "Longitude": -89.0792, "Industry_T": "Pulp and Paper,Suppliers of CO2,Waste", "CO2_Emissi": 11579.0}}, {"type": "Feature", "id": "1059", "geometry": {"type": "Point", "coordinates": [-89.97895999999997, 35.27213000000006]}, "properties": {"Facility_N": "Arkema Inc.", "City": "Memphis", "State": "TN", "Latitude": 35.27213, "Longitude": -89.97896, "Industry_T": "Chemicals,Suppliers of CO2", "CO2_Emissi": 13720.0}}, {"type": "Feature", "id": "1170", "geometry": {"type": "Point", "coordinates": [-104.44601999999998, 32.71629000000007]}, "properties": {"Facility_N": "Agave Dagger Draw Gas Plant", "City": "Artesia", "State": "NM", "Latitude": 32.71629, "Longitude": -104.44602, "Industry_T": "Injection of CO2,Petroleum and Natural Gas Systems,Suppliers of CO2", "CO2_Emissi": 16831.1}}, {"type": "Feature", "id": "1176", "geometry": {"type": "Point", "coordinates": [-97.72639999999996, 43.14680000000004]}, "properties": {"Facility_N": "POET RESEARCH CENTER, INC.", "City": "SCOTLAND", "State": "SD", "Latitude": 43.1468, "Longitude": -97.7264, "Industry_T": "Other,Suppliers of CO2", "CO2_Emissi": 16979.2}}, {"type": "Feature", "id": "1420", "geometry": {"type": "Point", "coordinates": [-96.22721899999999, 31.908060000000035]}, "properties": {"Facility_N": "AKER PLANT", "City": "STREETMAN", "State": "TX", "Latitude": 31.90806, "Longitude": -96.227219, "Industry_T": "Petroleum and Natural Gas Systems,Suppliers of CO2", "CO2_Emissi": 23027.8}}, {"type": "Feature", "id": "1567", "geometry": {"type": "Point", "coordinates": [-158.09253299999997, 21.30926400000004]}, "properties": {"Facility_N": "SNG Plant", "City": "Kapolei", "State": "HI", "Latitude": 21.309264, "Longitude": -158.092533, "Industry_T": "Other,Suppliers of CO2", "CO2_Emissi": 25210.4}}, {"type": "Feature", "id": "1584", "geometry": {"type": "Point", "coordinates": [-96.05205555999999, 34.87402778000006]}, "properties": {"Facility_N": "Catcher Ranch Gas Plant", "City": "McAlester", "State": "OK", "Latitude": 34.87402778, "Longitude": -96.05205556, "Industry_T": "Petroleum and Natural Gas Systems,Suppliers of CO2", "CO2_Emissi": 25416.8}}, {"type": "Feature", "id": "1713", "geometry": {"type": "Point", "coordinates": [-103.10484489999999, 31.159975400000064]}, "properties": {"Facility_N": "Delaware Basin Gas Plant", "City": "Coyanosa", "State": "TX", "Latitude": 31.1599754, "Longitude": -103.1048449, "Industry_T": "Injection of CO2,Petroleum and Natural Gas Systems,Suppliers of CO2", "CO2_Emissi": 27381.6}}, {"type": "Feature", "id": "2022", "geometry": {"type": "Point", "coordinates": [-76.31119999999999, 43.16910000000007]}, "properties": {"Facility_N": "ANHEUSER BUSCH BALDWINSVILLE BREWERY", "City": "BALDWINSVILLE", "State": "NY", "Latitude": 43.1691, "Longitude": -76.3112, "Industry_T": "Other,Suppliers of CO2", "CO2_Emissi": 32409.3}}, {"type": "Feature", "id": "2243", "geometry": {"type": "Point", "coordinates": [-104.85755299999994, 40.45597800000007]}, "properties": {"Facility_N": "FRONT RANGE ENERGY", "City": "WINDSOR", "State": "CO", "Latitude": 40.455978, "Longitude": -104.857553, "Industry_T": "Other,Suppliers of CO2", "CO2_Emissi": 36273.5}}, {"type": "Feature", "id": "2524", "geometry": {"type": "Point", "coordinates": [-97.69049999999999, 34.46150000000006]}, "properties": {"Facility_N": "TARGA VELMA GAS PROCESSING PLANT", "City": "VELMA", "State": "OK", "Latitude": 34.4615, "Longitude": -97.6905, "Industry_T": "Injection of CO2,Petroleum and Natural Gas Systems,Suppliers of CO2", "CO2_Emissi": 42796.5}}, {"type": "Feature", "id": "2620", "geometry": {"type": "Point", "coordinates": [-99.10134999999997, 28.461253000000056]}, "properties": {"Facility_N": "Dilley Treating Facility", "City": "Cotulla", "State": "TX", "Latitude": 28.461253, "Longitude": -99.10135, "Industry_T": "Injection of CO2,Petroleum and Natural Gas Systems,Suppliers of CO2", "CO2_Emissi": 45376.4}}, {"type": "Feature", "id": "2713", "geometry": {"type": "Point", "coordinates": [-92.38509999999997, 39.74810000000008]}, "properties": {"Facility_N": "Northeast Missouri Grain LLC dba Poet Biorefining-Macon", "City": "Macon", "State": "MO", "Latitude": 39.7481, "Longitude": -92.3851, "Industry_T": "Other,Suppliers of CO2", "CO2_Emissi": 48132.6}}, {"type": "Feature", "id": "2775", "geometry": {"type": "Point", "coordinates": [-110.81071999999995, 39.59938600000004]}, "properties": {"Facility_N": "XTO - Castle Valley", "City": "Price", "State": "UT", "Latitude": 39.599386, "Longitude": -110.81072, "Industry_T": "Petroleum and Natural Gas Systems,Suppliers of CO2", "CO2_Emissi": 49799.7}}, {"type": "Feature", "id": "2811", "geometry": {"type": "Point", "coordinates": [-95.04527799999994, 43.897083000000066]}, "properties": {"Facility_N": "ETHANOL 2000 LLP dba Poet Biorefining-Bingham Lake", "City": "BINGHAM LAKE", "State": "MN", "Latitude": 43.897083, "Longitude": -95.045278, "Industry_T": "Other,Suppliers of CO2", "CO2_Emissi": 50825.2}}, {"type": "Feature", "id": "2827", "geometry": {"type": "Point", "coordinates": [-90.98759999999999, 30.183808000000056]}, "properties": {"Facility_N": "AIR PRODUCTS & CHEMICALS INC - Geismar SMR", "City": "GEISMAR", "State": "LA", "Latitude": 30.183808, "Longitude": -90.9876, "Industry_T": "Chemicals,Suppliers of CO2", "CO2_Emissi": 51276.0}}, {"type": "Feature", "id": "2843", "geometry": {"type": "Point", "coordinates": [-91.64512599999995, 39.25006700000006]}, "properties": {"Facility_N": "POET BIOREFINING LADDONIA", "City": "LADDONIA", "State": "MO", "Latitude": 39.250067, "Longitude": -91.645126, "Industry_T": "Other,Suppliers of CO2", "CO2_Emissi": 52129.6}}, {"type": "Feature", "id": "2968", "geometry": {"type": "Point", "coordinates": [-100.83599999999996, 37.95863900000006]}, "properties": {"Facility_N": "BONANZA BIOENERGY, LLC", "City": "GARDEN CITY", "State": "KS", "Latitude": 37.958639, "Longitude": -100.836, "Industry_T": "Other,Suppliers of CO2", "CO2_Emissi": 56846.6}}, {"type": "Feature", "id": "3021", "geometry": {"type": "Point", "coordinates": [-95.08019399999995, 29.627167000000043]}, "properties": {"Facility_N": "EQUISTAR CHEMICALS LIMITED PARTNERSHIP BAYPORT PLANT", "City": "PASADENA", "State": "TX", "Latitude": 29.627167, "Longitude": -95.080194, "Industry_T": "Chemicals,Suppliers of CO2", "CO2_Emissi": 58696.7}}, {"type": "Feature", "id": "3125", "geometry": {"type": "Point", "coordinates": [-84.86086099999994, 39.098667000000034]}, "properties": {"Facility_N": "MGPI of Indiana, LLC", "City": "LAWRENCEBURG", "State": "IN", "Latitude": 39.098667, "Longitude": -84.860861, "Industry_T": "Other,Suppliers of CO2", "CO2_Emissi": 63073.9}}, {"type": "Feature", "id": "3184", "geometry": {"type": "Point", "coordinates": [-93.30182299999996, 43.576024000000075]}, "properties": {"Facility_N": "Agra Resources LLC dba POET BIOREFINING - GLENVILLE", "City": "ALBERT LEA", "State": "MN", "Latitude": 43.576024, "Longitude": -93.301823, "Industry_T": "Other,Suppliers of CO2", "CO2_Emissi": 66470.7}}, {"type": "Feature", "id": "3213", "geometry": {"type": "Point", "coordinates": [-94.15122599999995, 43.763198000000045]}, "properties": {"Facility_N": "CORN PLUS", "City": "WINNEBAGO", "State": "MN", "Latitude": 43.763198, "Longitude": -94.151226, "Industry_T": "Other,Suppliers of CO2", "CO2_Emissi": 67514.6}}, {"type": "Feature", "id": "3244", "geometry": {"type": "Point", "coordinates": [-95.41515999999996, 42.47684000000004]}, "properties": {"Facility_N": "QUAD CNTY CORN PROCESSORS", "City": "GALVA", "State": "IA", "Latitude": 42.47684, "Longitude": -95.41516, "Industry_T": "Other,Suppliers of CO2", "CO2_Emissi": 68829.9}}, {"type": "Feature", "id": "3267", "geometry": {"type": "Point", "coordinates": [-101.84329999999994, 30.373600000000067]}, "properties": {"Facility_N": "Terrell Gas Plant", "City": "Sheffield", "State": "TX", "Latitude": 30.3736, "Longitude": -101.8433, "Industry_T": "Petroleum and Natural Gas Systems,Suppliers of CO2", "CO2_Emissi": 70218.0}}, {"type": "Feature", "id": "3349", "geometry": {"type": "Point", "coordinates": [-90.96079999999995, 44.95890000000003]}, "properties": {"Facility_N": "ACE ETHANOL LLC", "City": "STANLEY", "State": "WI", "Latitude": 44.9589, "Longitude": -90.9608, "Industry_T": "Other,Suppliers of CO2", "CO2_Emissi": 73935.6}}, {"type": "Feature", "id": "3403", "geometry": {"type": "Point", "coordinates": [-104.00049999999999, 47.590430000000026]}, "properties": {"Facility_N": "BPE GPRP Grasslands Gas Plant", "City": "Cartwright", "State": "ND", "Latitude": 47.59043, "Longitude": -104.0005, "Industry_T": "Injection of CO2,Natural Gas and Natural Gas Liquids Suppliers,Petroleum and Natural Gas Systems,Suppliers of CO2", "CO2_Emissi": 76666.3}}, {"type": "Feature", "id": "3431", "geometry": {"type": "Point", "coordinates": [-93.01737899999995, 44.049412000000075]}, "properties": {"Facility_N": "AL CORN CLEAN FUEL", "City": "CLAREMONT", "State": "MN", "Latitude": 44.049412, "Longitude": -93.017379, "Industry_T": "Other,Suppliers of CO2,Waste", "CO2_Emissi": 78035.1}}, {"type": "Feature", "id": "3438", "geometry": {"type": "Point", "coordinates": [-78.37003999999996, 43.21034000000003]}, "properties": {"Facility_N": "WESTERN NEW YORK ENERGY LLC", "City": "MEDINA", "State": "NY", "Latitude": 43.21034, "Longitude": -78.37004, "Industry_T": "Other,Suppliers of CO2,Waste", "CO2_Emissi": 78924.4}}, {"type": "Feature", "id": "3487", "geometry": {"type": "Point", "coordinates": [-91.98006299999997, 45.05059600000004]}, "properties": {"Facility_N": "Big River Resources Boyceville, LLC", "City": "BOYCEVILLE", "State": "WI", "Latitude": 45.050596, "Longitude": -91.980063, "Industry_T": "Other,Suppliers of CO2,Waste", "CO2_Emissi": 81606.1}}, {"type": "Feature", "id": "3546", "geometry": {"type": "Point", "coordinates": [-88.65181499999994, 43.980233000000055]}, "properties": {"Facility_N": "Fox River Valley Ethanol, LLC", "City": "OSHKOSH", "State": "WI", "Latitude": 43.980233, "Longitude": -88.651815, "Industry_T": "Other,Suppliers of CO2", "CO2_Emissi": 84689.4}}, {"type": "Feature", "id": "3579", "geometry": {"type": "Point", "coordinates": [-89.66690999999997, 42.59490000000005]}, "properties": {"Facility_N": "BADGER STATE ETHANOL", "City": "MONROE", "State": "WI", "Latitude": 42.5949, "Longitude": -89.66691, "Industry_T": "Other,Suppliers of CO2,Waste", "CO2_Emissi": 86905.8}}, {"type": "Feature", "id": "3609", "geometry": {"type": "Point", "coordinates": [-104.21109999999999, 32.75640000000004]}, "properties": {"Facility_N": "ARTESIA GAS PLANT", "City": "ARTESIA", "State": "NM", "Latitude": 32.7564, "Longitude": -104.2111, "Industry_T": "Injection of CO2,Petroleum and Natural Gas Systems,Suppliers of CO2", "CO2_Emissi": 88426.3}}, {"type": "Feature", "id": "3628", "geometry": {"type": "Point", "coordinates": [-83.83609199999995, 41.81443600000006]}, "properties": {"Facility_N": "Green Plains Holdings II LLC", "City": "RIGA", "State": "MI", "Latitude": 41.814436, "Longitude": -83.836092, "Industry_T": "Other,Suppliers of CO2", "CO2_Emissi": 89485.9}}, {"type": "Feature", "id": "3663", "geometry": {"type": "Point", "coordinates": [-84.78972599999997, 42.25964600000003]}, "properties": {"Facility_N": "ANDERSONS ALBION ETHANOL LLC", "City": "ALBION", "State": "MI", "Latitude": 42.259646, "Longitude": -84.789726, "Industry_T": "Other,Suppliers of CO2,Waste", "CO2_Emissi": 91846.7}}, {"type": "Feature", "id": "3704", "geometry": {"type": "Point", "coordinates": [-97.46585599999997, 32.90772300000003]}, "properties": {"Facility_N": "XTO - Cotton Cove", "City": "Fort Worth", "State": "TX", "Latitude": 32.907723, "Longitude": -97.465856, "Industry_T": "Petroleum and Natural Gas Systems,Suppliers of CO2", "CO2_Emissi": 94205.4}}, {"type": "Feature", "id": "3725", "geometry": {"type": "Point", "coordinates": [-102.64027699999997, 31.501667000000054]}, "properties": {"Facility_N": "Targa Midstream Services LLC - Sandhills Gas Plant", "City": "Crane", "State": "TX", "Latitude": 31.501667, "Longitude": -102.640277, "Industry_T": "Injection of CO2,Petroleum and Natural Gas Systems,Suppliers of CO2", "CO2_Emissi": 95061.9}}, {"type": "Feature", "id": "3752", "geometry": {"type": "Point", "coordinates": [-83.15953999999994, 40.61855000000003]}, "properties": {"Facility_N": "Marion Ethanol LLC d/b/a Poet Biorefining - Marion", "City": "Marion", "State": "OH", "Latitude": 40.61855, "Longitude": -83.15954, "Industry_T": "Other,Suppliers of CO2", "CO2_Emissi": 97397.6}}, {"type": "Feature", "id": "3756", "geometry": {"type": "Point", "coordinates": [-83.38059999999996, 41.17562000000004]}, "properties": {"Facility_N": "POET BIOREFINING", "City": "FOSTORIA", "State": "OH", "Latitude": 41.17562, "Longitude": -83.3806, "Industry_T": "Chemicals,Suppliers of CO2", "CO2_Emissi": 97633.8}}, {"type": "Feature", "id": "3778", "geometry": {"type": "Point", "coordinates": [-103.14856399999996, 32.426150000000064]}, "properties": {"Facility_N": "Targa Midstream Services LLC - Eunice Gas Processing Plant", "City": "Eunice", "State": "NM", "Latitude": 32.42615, "Longitude": -103.148564, "Industry_T": "Injection of CO2,Petroleum and Natural Gas Systems,Suppliers of CO2", "CO2_Emissi": 99548.8}}, {"type": "Feature", "id": "3782", "geometry": {"type": "Point", "coordinates": [-96.54141699999997, 40.48030600000004]}, "properties": {"Facility_N": "E ENERGY ADAMS", "City": "ADAMS", "State": "NE", "Latitude": 40.480306, "Longitude": -96.541417, "Industry_T": "Other,Suppliers of CO2", "CO2_Emissi": 100585.2}}, {"type": "Feature", "id": "3810", "geometry": {"type": "Point", "coordinates": [-103.31194399999998, 32.61027800000005]}, "properties": {"Facility_N": "Targa Midstream Services LLC - Monument Gas Processing Plant", "City": "Monument", "State": "NM", "Latitude": 32.610278, "Longitude": -103.311944, "Industry_T": "Injection of CO2,Petroleum and Natural Gas Systems,Suppliers of CO2", "CO2_Emissi": 103534.2}}, {"type": "Feature", "id": "3907", "geometry": {"type": "Point", "coordinates": [-86.29619999999994, 41.655200000000036]}, "properties": {"Facility_N": "Noble Americas South Bend Ethanol, LLC.", "City": "SOUTH BEND", "State": "IN", "Latitude": 41.6552, "Longitude": -86.2962, "Industry_T": "Other,Suppliers of CO2", "CO2_Emissi": 112904.3}}, {"type": "Feature", "id": "3909", "geometry": {"type": "Point", "coordinates": [-85.72790999999995, 40.564940000000036]}, "properties": {"Facility_N": "CENTRAL INDIANA ETHANOL, LLC", "City": "MARION", "State": "IN", "Latitude": 40.56494, "Longitude": -85.72791, "Industry_T": "Other,Suppliers of CO2,Waste", "CO2_Emissi": 113003.8}}, {"type": "Feature", "id": "3926", "geometry": {"type": "Point", "coordinates": [-100.79629399999999, 37.10770500000007]}, "properties": {"Facility_N": "ARKALON ETHANOL LLC", "City": "LIBERAL", "State": "KS", "Latitude": 37.107705, "Longitude": -100.796294, "Industry_T": "Other,Suppliers of CO2", "CO2_Emissi": 116139.0}}, {"type": "Feature", "id": "3942", "geometry": {"type": "Point", "coordinates": [-87.01573999999994, 34.62946000000005]}, "properties": {"Facility_N": "LINDE GAS NORTH AMERICA LLC, DECATUR PLANT", "City": "DECATUR", "State": "AL", "Latitude": 34.62946, "Longitude": -87.01574, "Industry_T": "Chemicals,Suppliers of CO2", "CO2_Emissi": 118180.2}}, {"type": "Feature", "id": "3947", "geometry": {"type": "Point", "coordinates": [-76.38099999999997, 43.299000000000035]}, "properties": {"Facility_N": "SUNOCO FULTON ETHANOL PLANT", "City": "FULTON", "State": "NY", "Latitude": 43.299, "Longitude": -76.381, "Industry_T": "Other,Suppliers of CO2", "CO2_Emissi": 119095.2}}, {"type": "Feature", "id": "4133", "geometry": {"type": "Point", "coordinates": [-118.91839999999996, 46.10396000000003]}, "properties": {"Facility_N": "BOISE PAPER", "City": "WALLULA", "State": "WA", "Latitude": 46.10396, "Longitude": -118.9184, "Industry_T": "Pulp and Paper,Suppliers of CO2,Waste", "CO2_Emissi": 148358.5}}, {"type": "Feature", "id": "4144", "geometry": {"type": "Point", "coordinates": [-84.16255799999999, 31.169408000000033]}, "properties": {"Facility_N": "Flint Hills Resources Camilla, LLC", "City": "Pelham", "State": "GA", "Latitude": 31.169408, "Longitude": -84.162558, "Industry_T": "Other,Suppliers of CO2,Waste", "CO2_Emissi": 149858.5}}, {"type": "Feature", "id": "4146", "geometry": {"type": "Point", "coordinates": [-94.34166699999997, 44.54194400000006]}, "properties": {"Facility_N": "HEARTLAND CORN PRODUCTS", "City": "WINTHROP", "State": "MN", "Latitude": 44.541944, "Longitude": -94.341667, "Industry_T": "Other,Suppliers of CO2", "CO2_Emissi": 150296.7}}, {"type": "Feature", "id": "4193", "geometry": {"type": "Point", "coordinates": [-87.47282899999999, 41.66863100000006]}, "properties": {"Facility_N": "PRAXAIR - WHITING, IN 1-4", "City": "EAST CHICAGO", "State": "IN", "Latitude": 41.668631, "Longitude": -87.472829, "Industry_T": "Chemicals,Suppliers of CO2", "CO2_Emissi": 160846.6}}, {"type": "Feature", "id": "4206", "geometry": {"type": "Point", "coordinates": [-93.40670299999994, 48.605458000000056]}, "properties": {"Facility_N": "BOISE WHITE PAPER LLC", "City": "INTERNATIONAL FALLS", "State": "MN", "Latitude": 48.605458, "Longitude": -93.406703, "Industry_T": "Pulp and Paper,Suppliers of CO2", "CO2_Emissi": 163801.1}}, {"type": "Feature", "id": "4225", "geometry": {"type": "Point", "coordinates": [-122.40775799999994, 45.582929000000036]}, "properties": {"Facility_N": "GEORGIA PACIFIC CONSUMER PRODUCTS CAMAS LLC", "City": "CAMAS", "State": "WA", "Latitude": 45.582929, "Longitude": -122.407758, "Industry_T": "Pulp and Paper,Suppliers of CO2,Waste", "CO2_Emissi": 167920.6}}, {"type": "Feature", "id": "4251", "geometry": {"type": "Point", "coordinates": [-84.86227999999994, 40.18595000000005]}, "properties": {"Facility_N": "CARDINAL ETHANOL, LLC", "City": "UNION CITY", "State": "IN", "Latitude": 40.18595, "Longitude": -84.86228, "Industry_T": "Other,Suppliers of CO2,Waste", "CO2_Emissi": 171483.4}}, {"type": "Feature", "id": "4272", "geometry": {"type": "Point", "coordinates": [-95.78367899999995, 44.47406700000005]}, "properties": {"Facility_N": "ARCHER DANIELS MIDLAND", "City": "MARSHALL", "State": "MN", "Latitude": 44.474067, "Longitude": -95.783679, "Industry_T": "Other,Suppliers of CO2,Waste", "CO2_Emissi": 175425.3}}, {"type": "Feature", "id": "4319", "geometry": {"type": "Point", "coordinates": [-84.59166699999997, 40.08111100000008]}, "properties": {"Facility_N": "ANDERSONS MARATHON ETHANOL LLC", "City": "GREENVILLE", "State": "OH", "Latitude": 40.081111, "Longitude": -84.591667, "Industry_T": "Other,Suppliers of CO2,Waste", "CO2_Emissi": 188782.9}}, {"type": "Feature", "id": "4361", "geometry": {"type": "Point", "coordinates": [-87.89880499999998, 31.492253000000062]}, "properties": {"Facility_N": "BOISE WHITE PAPER MILL", "City": "JACKSON", "State": "AL", "Latitude": 31.492253, "Longitude": -87.898805, "Industry_T": "Pulp and Paper,Suppliers of CO2,Waste", "CO2_Emissi": 198267.1}}, {"type": "Feature", "id": "4414", "geometry": {"type": "Point", "coordinates": [-87.22619999999995, 38.633500000000026]}, "properties": {"Facility_N": "GRAIN PROCESSING CORP", "City": "WASHINGTON", "State": "IN", "Latitude": 38.6335, "Longitude": -87.2262, "Industry_T": "Other,Suppliers of CO2,Waste", "CO2_Emissi": 213253.5}}, {"type": "Feature", "id": "4477", "geometry": {"type": "Point", "coordinates": [-87.05829999999997, 34.64000000000004]}, "properties": {"Facility_N": "Indorama Ventures, Xylenes and PTA, LLC", "City": "DECATUR", "State": "AL", "Latitude": 34.64, "Longitude": -87.0583, "Industry_T": "Chemicals,Suppliers of CO2", "CO2_Emissi": 234084.4}}, {"type": "Feature", "id": "4505", "geometry": {"type": "Point", "coordinates": [-81.93122999999997, 33.44136000000003]}, "properties": {"Facility_N": "DSM CHEMICALS NORTH AMERICA INCORPORATED", "City": "AUGUSTA", "State": "GA", "Latitude": 33.44136, "Longitude": -81.93123, "Industry_T": "Chemicals,Suppliers of CO2", "CO2_Emissi": 247691.0}}, {"type": "Feature", "id": "4549", "geometry": {"type": "Point", "coordinates": [-103.80886669999995, 32.64302200000003]}, "properties": {"Facility_N": "ZIA II GAS PLANT", "City": "Lea County", "State": "NM", "Latitude": 32.643022, "Longitude": -103.8088667, "Industry_T": "Injection of CO2,Petroleum and Natural Gas Systems,Suppliers of CO2", "CO2_Emissi": 267018.1}}, {"type": "Feature", "id": "4555", "geometry": {"type": "Point", "coordinates": [-91.06002399999994, 41.39958100000007]}, "properties": {"Facility_N": "GRAIN PROCESSING CORP", "City": "MUSCATINE", "State": "IA", "Latitude": 41.399581, "Longitude": -91.060024, "Industry_T": "Other,Suppliers of CO2,Waste", "CO2_Emissi": 269420.7}}, {"type": "Feature", "id": "4574", "geometry": {"type": "Point", "coordinates": [-103.28529999999995, 32.69530000000003]}, "properties": {"Facility_N": "LINAM RANCH GAS PLANT", "City": "HOBBS", "State": "NM", "Latitude": 32.6953, "Longitude": -103.2853, "Industry_T": "Injection of CO2,Petroleum and Natural Gas Systems,Suppliers of CO2", "CO2_Emissi": 281559.6}}, {"type": "Feature", "id": "4615", "geometry": {"type": "Point", "coordinates": [-87.93973999999997, 34.80302000000006]}, "properties": {"Facility_N": "CHEROKEE NITROGEN", "City": "CHEROKEE", "State": "AL", "Latitude": 34.80302, "Longitude": -87.93974, "Industry_T": "Chemicals,Suppliers of CO2", "CO2_Emissi": 302379.6}}, {"type": "Feature", "id": "4651", "geometry": {"type": "Point", "coordinates": [-95.27834899999999, 36.241247000000044]}, "properties": {"Facility_N": "PRYOR CHEMICAL COMPANY", "City": "PRYOR", "State": "OK", "Latitude": 36.241247, "Longitude": -95.278349, "Industry_T": "Chemicals,Suppliers of CO2", "CO2_Emissi": 321256.0}}, {"type": "Feature", "id": "4691", "geometry": {"type": "Point", "coordinates": [-108.11135599999994, 39.48729700000007]}, "properties": {"Facility_N": "BARGATH, INC.- PARACHUTE", "City": "PARACHUTE, 3.4 MI NW OF", "State": "CO", "Latitude": 39.487297, "Longitude": -108.111356, "Industry_T": "Petroleum and Natural Gas Systems,Suppliers of CO2", "CO2_Emissi": 341790.4}}, {"type": "Feature", "id": "4723", "geometry": {"type": "Point", "coordinates": [-104.90629999999999, 41.09490000000005]}, "properties": {"Facility_N": "Cheyenne Plant", "City": "Cheyenne", "State": "WY", "Latitude": 41.0949, "Longitude": -104.9063, "Industry_T": "Chemicals,Suppliers of CO2", "CO2_Emissi": 360222.3}}, {"type": "Feature", "id": "4748", "geometry": {"type": "Point", "coordinates": [-89.82549999999998, 44.40400000000005]}, "properties": {"Facility_N": "WISCONSIN RAPIDS FIBER AND ENERGY MILL", "City": "WISCONSIN RAPIDS", "State": "WI", "Latitude": 44.404, "Longitude": -89.8255, "Industry_T": "Pulp and Paper,Suppliers of CO2,Waste", "CO2_Emissi": 379083.6}}, {"type": "Feature", "id": "4773", "geometry": {"type": "Point", "coordinates": [-89.66279999999995, 40.555000000000064]}, "properties": {"Facility_N": "PACIFIC ETHANOL PEKIN, LLC", "City": "PEKIN", "State": "IL", "Latitude": 40.555, "Longitude": -89.6628, "Industry_T": "Other,Suppliers of CO2,Waste", "CO2_Emissi": 398655.5}}, {"type": "Feature", "id": "4788", "geometry": {"type": "Point", "coordinates": [-84.32079999999996, 35.74330000000003]}, "properties": {"Facility_N": "Tate & Lyle-Loudon", "City": "LOUDON", "State": "TN", "Latitude": 35.7433, "Longitude": -84.3208, "Industry_T": "Other,Suppliers of CO2,Waste", "CO2_Emissi": 410206.1}}, {"type": "Feature", "id": "4841", "geometry": {"type": "Point", "coordinates": [-90.26461999999998, 29.964823000000024]}, "properties": {"Facility_N": "Dyno Nobel Louisiana Ammonia LLC", "City": "Waggaman", "State": "LA", "Latitude": 29.964823, "Longitude": -90.26462, "Industry_T": "Chemicals,Suppliers of CO2", "CO2_Emissi": 450880.7}}, {"type": "Feature", "id": "4842", "geometry": {"type": "Point", "coordinates": [-99.92974599999997, 37.77701300000007]}, "properties": {"Facility_N": "KOCH FERTILIZER DODGE CITY, LLC", "City": "DODGE CITY", "State": "KS", "Latitude": 37.777013, "Longitude": -99.929746, "Industry_T": "Chemicals,Suppliers of CO2", "CO2_Emissi": 451850.9}}, {"type": "Feature", "id": "4851", "geometry": {"type": "Point", "coordinates": [-87.08977999999996, 45.80479900000006]}, "properties": {"Facility_N": "ESCANABA PAPER COMPANY", "City": "ESCANABA", "State": "MI", "Latitude": 45.804799, "Longitude": -87.08978, "Industry_T": "Pulp and Paper,Suppliers of CO2,Waste", "CO2_Emissi": 457305.4}}, {"type": "Feature", "id": "4911", "geometry": {"type": "Point", "coordinates": [-87.02439999999996, 34.63390000000004]}, "properties": {"Facility_N": "Ascend (Decatur Plant)", "City": "DECATUR", "State": "AL", "Latitude": 34.6339, "Longitude": -87.0244, "Industry_T": "Chemicals,Suppliers of CO2", "CO2_Emissi": 522274.0}}, {"type": "Feature", "id": "4960", "geometry": {"type": "Point", "coordinates": [-96.84129699999994, 40.319147000000044]}, "properties": {"Facility_N": "KOCH FERTILIZER BEATRICE, LLC", "City": "BEATRICE", "State": "NE", "Latitude": 40.319147, "Longitude": -96.841297, "Industry_T": "Chemicals,Suppliers of CO2", "CO2_Emissi": 582288.6}}, {"type": "Feature", "id": "4991", "geometry": {"type": "Point", "coordinates": [-95.06159199999996, 29.625819000000035]}, "properties": {"Facility_N": "CLEAR LAKE PLANT", "City": "PASADENA", "State": "TX", "Latitude": 29.625819, "Longitude": -95.061592, "Industry_T": "Chemicals,Suppliers of CO2", "CO2_Emissi": 617733.0}}, {"type": "Feature", "id": "5007", "geometry": {"type": "Point", "coordinates": [-90.55685999999997, 42.44311000000005]}, "properties": {"Facility_N": "East Dubuque Nitrogen Fertilizers, LLC", "City": "EAST DUBUQUE", "State": "IL", "Latitude": 42.44311, "Longitude": -90.55686, "Industry_T": "Chemicals,Suppliers of CO2", "CO2_Emissi": 643726.5}}, {"type": "Feature", "id": "5018", "geometry": {"type": "Point", "coordinates": [-94.01717699999995, 42.49940600000008]}, "properties": {"Facility_N": "Koch Fertilizer Ft. Dodge, LLC", "City": "Duncombe", "State": "IA", "Latitude": 42.499406, "Longitude": -94.017177, "Industry_T": "Chemicals,Suppliers of CO2", "CO2_Emissi": 664800.2}}, {"type": "Feature", "id": "5070", "geometry": {"type": "Point", "coordinates": [-96.36488999999995, 42.327860000000044]}, "properties": {"Facility_N": "CF Industries Nitrogen, LLC-Port Neal Nitrogen Complex", "City": "SERGEANT BLUFF", "State": "IA", "Latitude": 42.32786, "Longitude": -96.36489, "Industry_T": "Chemicals,Suppliers of CO2", "CO2_Emissi": 726002.1}}, {"type": "Feature", "id": "5082", "geometry": {"type": "Point", "coordinates": [-101.42279999999994, 35.64170000000007]}, "properties": {"Facility_N": "AGRIUM US BORGER NITROGEN OPERATIONS", "City": "BORGER", "State": "TX", "Latitude": 35.6417, "Longitude": -101.4228, "Industry_T": "Chemicals,Suppliers of CO2", "CO2_Emissi": 746665.7}}, {"type": "Feature", "id": "5091", "geometry": {"type": "Point", "coordinates": [-107.59999999999997, 43.273000000000025]}, "properties": {"Facility_N": "BURLINGTON RESOURCES_LOST CABIN", "City": "LOST CABIN", "State": "WY", "Latitude": 43.273, "Longitude": -107.6, "Industry_T": "Petroleum and Natural Gas Systems,Suppliers of CO2", "CO2_Emissi": 761327.5}}, {"type": "Feature", "id": "5141", "geometry": {"type": "Point", "coordinates": [-91.28116699999998, 30.650644000000057]}, "properties": {"Facility_N": "GEORGIA-PACIFIC PORT HUDSON OPERATIONS", "City": "ZACHARY", "State": "LA", "Latitude": 30.650644, "Longitude": -91.281167, "Industry_T": "Pulp and Paper,Suppliers of CO2,Waste", "CO2_Emissi": 852915.5}}, {"type": "Feature", "id": "5157", "geometry": {"type": "Point", "coordinates": [-118.24309999999997, 33.80480000000006]}, "properties": {"Facility_N": "Phillips 66 Los Angeles Refinery - Carson Plant", "City": "CARSON", "State": "CA", "Latitude": 33.8048, "Longitude": -118.2431, "Industry_T": "Chemicals,Petroleum Product Suppliers,Refineries,Suppliers of CO2", "CO2_Emissi": 887643.7}}, {"type": "Feature", "id": "5184", "geometry": {"type": "Point", "coordinates": [-99.47111099999995, 36.43638900000008]}, "properties": {"Facility_N": "TERRA INTERNATIONAL (OKLAHOMA) INC", "City": "WOODWARD", "State": "OK", "Latitude": 36.436389, "Longitude": -99.471111, "Industry_T": "Chemicals,Suppliers of CO2", "CO2_Emissi": 937859.6}}, {"type": "Feature", "id": "5189", "geometry": {"type": "Point", "coordinates": [-77.27189999999996, 37.301600000000064]}, "properties": {"Facility_N": "ADVANSIX INCORPORATED - HOPEWELL", "City": "HOPEWELL", "State": "VA", "Latitude": 37.3016, "Longitude": -77.2719, "Industry_T": "Chemicals,Suppliers of CO2", "CO2_Emissi": 958046.6}}, {"type": "Feature", "id": "5217", "geometry": {"type": "Point", "coordinates": [-91.05315399999995, 30.225784000000033]}, "properties": {"Facility_N": "PCS NITROGEN FERTILIZER LP - GEISMAR AGRICULTURAL NITROGEN & PHOSPHATE PLANT", "City": "GEISMAR", "State": "LA", "Latitude": 30.225784, "Longitude": -91.053154, "Industry_T": "Chemicals,Suppliers of CO2", "CO2_Emissi": 1035836.3}}, {"type": "Feature", "id": "5237", "geometry": {"type": "Point", "coordinates": [-78.74559999999997, 39.594400000000064]}, "properties": {"Facility_N": "AES Warrior Run", "City": "CUMBERLAND", "State": "MD", "Latitude": 39.5944, "Longitude": -78.7456, "Industry_T": "Power Plants,Suppliers of CO2", "CO2_Emissi": 1082358.6}}, {"type": "Feature", "id": "5283", "geometry": {"type": "Point", "coordinates": [-97.43665799999997, 27.810775000000035]}, "properties": {"Facility_N": "VALERO CORPUS CHRISTI REFINERY EAST PLANT", "City": "CORPUS CHRISTI", "State": "TX", "Latitude": 27.810775, "Longitude": -97.436658, "Industry_T": "Chemicals,Petroleum Product Suppliers,Refineries,Suppliers of CO2", "CO2_Emissi": 1224151.9}}, {"type": "Feature", "id": "5301", "geometry": {"type": "Point", "coordinates": [-84.13227399999994, 40.71749900000003]}, "properties": {"Facility_N": "PCS Nitrogen Ohio, L.P.", "City": "Lima", "State": "OH", "Latitude": 40.717499, "Longitude": -84.132274, "Industry_T": "Chemicals,Suppliers of CO2", "CO2_Emissi": 1274480.8}}, {"type": "Feature", "id": "5334", "geometry": {"type": "Point", "coordinates": [-81.93289799999997, 33.426976000000025]}, "properties": {"Facility_N": "PCS NITROGEN FERTILIZER, L.P.", "City": "AUGUSTA", "State": "GA", "Latitude": 33.426976, "Longitude": -81.932898, "Industry_T": "Chemicals,Suppliers of CO2", "CO2_Emissi": 1373577.0}}, {"type": "Feature", "id": "5343", "geometry": {"type": "Point", "coordinates": [-95.60516999999999, 37.04536000000007]}, "properties": {"Facility_N": "COFFEYVILLE RESOURCES NITROGEN FERT.", "City": "COFFEYVILLE", "State": "KS", "Latitude": 37.04536, "Longitude": -95.60517, "Industry_T": "Chemicals,Suppliers of CO2", "CO2_Emissi": 1411929.1}}, {"type": "Feature", "id": "5371", "geometry": {"type": "Point", "coordinates": [-97.75792999999999, 36.37785000000008]}, "properties": {"Facility_N": "KOCH FERITLIZER ENID LLC ENID NITROGEN PLT", "City": "ENID", "State": "OK", "Latitude": 36.37785, "Longitude": -97.75793, "Industry_T": "Chemicals,Suppliers of CO2", "CO2_Emissi": 1529295.6}}, {"type": "Feature", "id": "5433", "geometry": {"type": "Point", "coordinates": [-118.29069599999997, 33.77446900000007]}, "properties": {"Facility_N": "Phillips 66 Los Angeles Refinery - Wilmington Plant", "City": "WILMINGTON", "State": "CA", "Latitude": 33.774469, "Longitude": -118.290696, "Industry_T": "Chemicals,Refineries,Suppliers of CO2", "CO2_Emissi": 1864288.3}}, {"type": "Feature", "id": "5469", "geometry": {"type": "Point", "coordinates": [-95.71909799999997, 36.233516000000066]}, "properties": {"Facility_N": "VERDIGRIS PLT", "City": "CLAREMORE", "State": "OK", "Latitude": 36.233516, "Longitude": -95.719098, "Industry_T": "Chemicals,Suppliers of CO2", "CO2_Emissi": 2065729.0}}, {"type": "Feature", "id": "5501", "geometry": {"type": "Point", "coordinates": [-94.64689999999996, 35.192900000000066]}, "properties": {"Facility_N": "AES SHADY POINT, LLC", "City": "PANAMA", "State": "OK", "Latitude": 35.1929, "Longitude": -94.6469, "Industry_T": "Power Plants,Suppliers of CO2", "CO2_Emissi": 2233806.0}}, {"type": "Feature", "id": "5522", "geometry": {"type": "Point", "coordinates": [-122.06389999999999, 38.025100000000066]}, "properties": {"Facility_N": "TESORO REFINING AND MARKETING COMPANY GOLDEN EAGLE REFINERY", "City": "MARTINEZ", "State": "CA", "Latitude": 38.0251, "Longitude": -122.0639, "Industry_T": "Chemicals,Refineries,Suppliers of CO2", "CO2_Emissi": 2381799.5}}, {"type": "Feature", "id": "5527", "geometry": {"type": "Point", "coordinates": [-110.09039999999999, 41.88050000000004]}, "properties": {"Facility_N": "Shute Creek Facility", "City": "KEMMERER", "State": "WY", "Latitude": 41.8805, "Longitude": -110.0904, "Industry_T": "Injection of CO2,Petroleum and Natural Gas Systems,Suppliers of CO2", "CO2_Emissi": 2396422.0}}, {"type": "Feature", "id": "5528", "geometry": {"type": "Point", "coordinates": [-122.7353, 48.88640000000004]}, "properties": {"Facility_N": "BP CHERRY POINT REFINERY", "City": "BLAINE", "State": "WA", "Latitude": 48.8864, "Longitude": -122.7353, "Industry_T": "Chemicals,Petroleum Product Suppliers,Refineries,Suppliers of CO2", "CO2_Emissi": 2403523.5}}, {"type": "Feature", "id": "5530", "geometry": {"type": "Point", "coordinates": [-93.96583299999998, 29.859444000000053]}, "properties": {"Facility_N": "Air Products Port Arthur Facility", "City": "Port Arthur", "State": "TX", "Latitude": 29.859444, "Longitude": -93.965833, "Industry_T": "Chemicals,Suppliers of CO2", "CO2_Emissi": 2422917.3}}, {"type": "Feature", "id": "5531", "geometry": {"type": "Point", "coordinates": [-118.33690699999994, 33.854967000000045]}, "properties": {"Facility_N": "TORRANCE REFINING COMPANY LLC", "City": "TORRANCE", "State": "CA", "Latitude": 33.854967, "Longitude": -118.336907, "Industry_T": "Chemicals,Petroleum Product Suppliers,Refineries,Suppliers of CO2", "CO2_Emissi": 2427439.8}}, {"type": "Feature", "id": "5570", "geometry": {"type": "Point", "coordinates": [-122.14357399999994, 38.07486400000005]}, "properties": {"Facility_N": "VALERO REFINING CO - CALI FORNIA BENICIA REFINERY", "City": "BENICIA", "State": "CA", "Latitude": 38.074864, "Longitude": -122.143574, "Industry_T": "Chemicals,Petroleum Product Suppliers,Refineries,Suppliers of CO2", "CO2_Emissi": 2842782.3}}, {"type": "Feature", "id": "5608", "geometry": {"type": "Point", "coordinates": [-101.83822199999997, 47.36081400000006]}, "properties": {"Facility_N": "Great Plains Synfuels Plant", "City": "BEULAH", "State": "ND", "Latitude": 47.360814, "Longitude": -101.838222, "Industry_T": "Chemicals,Coal-based Liquid Fuel Supply,Suppliers of CO2", "CO2_Emissi": 3326353.8}}, {"type": "Feature", "id": "5621", "geometry": {"type": "Point", "coordinates": [-118.41073999999998, 33.90812600000004]}, "properties": {"Facility_N": "CHEVRON PRODUCTS, EL SEGUNDO REFINERY", "City": "EL SEGUNDO", "State": "CA", "Latitude": 33.908126, "Longitude": -118.41074, "Industry_T": "Chemicals,Refineries,Suppliers of CO2", "CO2_Emissi": 3565022.6}}, {"type": "Feature", "id": "5646", "geometry": {"type": "Point", "coordinates": [-75.63369999999998, 39.59360000000004]}, "properties": {"Facility_N": "Delaware City Refinery", "City": "DELAWARE CITY", "State": "DE", "Latitude": 39.5936, "Longitude": -75.6337, "Industry_T": "Chemicals,Petroleum Product Suppliers,Power Plants,Refineries,Suppliers of CO2", "CO2_Emissi": 4167326.8}}, {"type": "Feature", "id": "5652", "geometry": {"type": "Point", "coordinates": [-122.39645299999995, 37.93877900000007]}, "properties": {"Facility_N": "CHEVRON PRODS.CO. RICHMOND REFY", "City": "RICHMOND", "State": "CA", "Latitude": 37.938779, "Longitude": -122.396453, "Industry_T": "Chemicals,Refineries,Suppliers of CO2", "CO2_Emissi": 4371411.0}}, {"type": "Feature", "id": "5657", "geometry": {"type": "Point", "coordinates": [-90.06749999999994, 38.837500000000034]}, "properties": {"Facility_N": "WRB Refining LP Wood River Refinery", "City": "ROXANA", "State": "IL", "Latitude": 38.8375, "Longitude": -90.0675, "Industry_T": "Chemicals,Petroleum Product Suppliers,Refineries,Suppliers of CO2,Waste", "CO2_Emissi": 4465574.2}}, {"type": "Feature", "id": "5711", "geometry": {"type": "Point", "coordinates": [-118.24297999999999, 33.81323000000003]}, "properties": {"Facility_N": "Tesoro CARSON REFINERY", "City": "CARSON", "State": "CA", "Latitude": 33.81323, "Longitude": -118.24298, "Industry_T": "Chemicals,Refineries,Suppliers of CO2", "CO2_Emissi": 6307050.5}}, {"type": "Feature", "id": "5730", "geometry": {"type": "Point", "coordinates": [-81.93439999999998, 38.979400000000055]}, "properties": {"Facility_N": "Mountaineer (1301)", "City": "NEW HAVEN", "State": "WV", "Latitude": 38.9794, "Longitude": -81.9344, "Industry_T": "Injection of CO2,Power Plants,Suppliers of CO2", "CO2_Emissi": 7465607.9}}, {"type": "Feature", "id": "5732", "geometry": {"type": "Point", "coordinates": [-88.01029999999997, 31.00690000000003]}, "properties": {"Facility_N": "Barry", "City": "BUCKS", "State": "AL", "Latitude": 31.0069, "Longitude": -88.0103, "Industry_T": "Power Plants,Suppliers of CO2", "CO2_Emissi": 7490390.2}}]