[{"type": "Feature", "id": "591", "geometry": {"type": "Point", "coordinates": [-75.46949299999994, 39.57490900000005]}, "properties": {"Facility_N": "Ardagh Glass Inc.", "City": "SALEM", "State": "NJ", "Latitude": 39.574909, "Longitude": -75.469493, "Industry_T": "Minerals", "CO2_Emissi": 1415.5}}, {"type": "Feature", "id": "807", "geometry": {"type": "Point", "coordinates": [-120.22500499999995, 37.09317600000003]}, "properties": {"Facility_N": "CERTAINTEED CORPORATION", "City": "CHOWCHILLA", "State": "CA", "Latitude": 37.093176, "Longitude": -120.225005, "Industry_T": "Minerals", "CO2_Emissi": 7099.5}}, {"type": "Feature", "id": "1150", "geometry": {"type": "Point", "coordinates": [-90.70727099999999, 35.84586200000007]}, "properties": {"Facility_N": "AR GLASS CONTAINER CORP", "City": "JONESBORO", "State": "AR", "Latitude": 35.845862, "Longitude": -90.707271, "Industry_T": "Minerals", "CO2_Emissi": 16384.6}}, {"type": "Feature", "id": "1233", "geometry": {"type": "Point", "coordinates": [-82.39289999999994, 39.55320000000006]}, "properties": {"Facility_N": "GE LOGAN GLASS PLANT", "City": "LOGAN", "State": "OH", "Latitude": 39.5532, "Longitude": -82.3929, "Industry_T": "Minerals", "CO2_Emissi": 18577.7}}, {"type": "Feature", "id": "1245", "geometry": {"type": "Point", "coordinates": [-82.47645999999997, 39.979400000000055]}, "properties": {"Facility_N": "MOMENTIVE PERFORMANCE MATERIALS QUARTZ, INC. (0145000213)", "City": "HEBRON", "State": "OH", "Latitude": 39.9794, "Longitude": -82.47646, "Industry_T": "Minerals", "CO2_Emissi": 18788.4}}, {"type": "Feature", "id": "1250", "geometry": {"type": "Point", "coordinates": [-87.89985499999995, 33.966720000000066]}, "properties": {"Facility_N": "3M CO - GUIN", "City": "GUIN", "State": "AL", "Latitude": 33.96672, "Longitude": -87.899855, "Industry_T": "Minerals", "CO2_Emissi": 18928.3}}, {"type": "Feature", "id": "1258", "geometry": {"type": "Point", "coordinates": [-81.13729999999998, 34.728800000000035]}, "properties": {"Facility_N": "PPG INDUSTRIES FIBER GLASS PRODUCTS, INC.", "City": "CHESTER", "State": "SC", "Latitude": 34.7288, "Longitude": -81.1373, "Industry_T": "Minerals", "CO2_Emissi": 19171.5}}, {"type": "Feature", "id": "1320", "geometry": {"type": "Point", "coordinates": [-73.25083999999998, 42.30079000000006]}, "properties": {"Facility_N": "OLDCASTLE STONE PRODUCTS", "City": "LEE", "State": "MA", "Latitude": 42.30079, "Longitude": -73.25084, "Industry_T": "Minerals", "CO2_Emissi": 20974.1}}, {"type": "Feature", "id": "1347", "geometry": {"type": "Point", "coordinates": [-89.61574999999999, 34.97575000000006]}, "properties": {"Facility_N": "Roxul USA, Inc.", "City": "Byhalia", "State": "MS", "Latitude": 34.97575, "Longitude": -89.61575, "Industry_T": "Minerals", "CO2_Emissi": 21510.7}}, {"type": "Feature", "id": "1376", "geometry": {"type": "Point", "coordinates": [-85.47112999999996, 40.886340000000075]}, "properties": {"Facility_N": "ISOLATEK INTERNATIONAL", "City": "HUNTINGTON", "State": "IN", "Latitude": 40.88634, "Longitude": -85.47113, "Industry_T": "Minerals", "CO2_Emissi": 22310.9}}, {"type": "Feature", "id": "1407", "geometry": {"type": "Point", "coordinates": [-92.51848299999995, 34.58123000000006]}, "properties": {"Facility_N": "Saint-Gobain Proppants (LR)", "City": "Benton", "State": "AR", "Latitude": 34.58123, "Longitude": -92.518483, "Industry_T": "Minerals", "CO2_Emissi": 22850.5}}, {"type": "Feature", "id": "1430", "geometry": {"type": "Point", "coordinates": [-96.54576999999995, 35.173290000000065]}, "properties": {"Facility_N": "COMMERCIAL BRICK", "City": "WEWOKA", "State": "OK", "Latitude": 35.17329, "Longitude": -96.54577, "Industry_T": "Minerals", "CO2_Emissi": 23177.2}}, {"type": "Feature", "id": "1447", "geometry": {"type": "Point", "coordinates": [-105.23882999999995, 39.90916000000004]}, "properties": {"Facility_N": "WESTERN AGGREGATES INCORPORATED", "City": "BOULDER", "State": "CO", "Latitude": 39.90916, "Longitude": -105.23883, "Industry_T": "Minerals", "CO2_Emissi": 23407.8}}, {"type": "Feature", "id": "1453", "geometry": {"type": "Point", "coordinates": [-85.04412999999994, 32.41745100000003]}, "properties": {"Facility_N": "IIG Mineral Wool. LLC", "City": "Phenix City", "State": "AL", "Latitude": 32.417451, "Longitude": -85.04413, "Industry_T": "Minerals", "CO2_Emissi": 23504.4}}, {"type": "Feature", "id": "1541", "geometry": {"type": "Point", "coordinates": [-78.78642199999996, 41.24295200000006]}, "properties": {"Facility_N": "OWENS-BROCKWAY GLASS CONTAINER INC PLT 18", "City": "BROCKWAY", "State": "PA", "Latitude": 41.242952, "Longitude": -78.786422, "Industry_T": "Minerals", "CO2_Emissi": 24802.2}}, {"type": "Feature", "id": "1575", "geometry": {"type": "Point", "coordinates": [-88.45608599999997, 46.75663000000003]}, "properties": {"Facility_N": "CERTAINTEED CEILINGS CORP", "City": "L ANSE", "State": "MI", "Latitude": 46.75663, "Longitude": -88.456086, "Industry_T": "Minerals", "CO2_Emissi": 25278.4}}, {"type": "Feature", "id": "1596", "geometry": {"type": "Point", "coordinates": [-82.66157999999996, 34.43545000000006]}, "properties": {"Facility_N": "Owens Corning Vitrotex, LLC", "City": "Starr", "State": "SC", "Latitude": 34.43545, "Longitude": -82.66158, "Industry_T": "Minerals", "CO2_Emissi": 25668.6}}, {"type": "Feature", "id": "1598", "geometry": {"type": "Point", "coordinates": [-80.73125099999999, 37.05922700000008]}, "properties": {"Facility_N": "James Hardie Building Products, Inc.", "City": "Pulaski", "State": "VA", "Latitude": 37.059227, "Longitude": -80.731251, "Industry_T": "Minerals", "CO2_Emissi": 25678.4}}, {"type": "Feature", "id": "1605", "geometry": {"type": "Point", "coordinates": [-118.21795099999997, 33.78036400000008]}, "properties": {"Facility_N": "NEW NGC Long Beach", "City": "Long Beach", "State": "CA", "Latitude": 33.780364, "Longitude": -118.217951, "Industry_T": "Minerals", "CO2_Emissi": 25771.7}}, {"type": "Feature", "id": "1623", "geometry": {"type": "Point", "coordinates": [-107.96948999999995, 44.00999000000007]}, "properties": {"Facility_N": "WYOMING SUGAR CO", "City": "WORLAND", "State": "WY", "Latitude": 44.00999, "Longitude": -107.96949, "Industry_T": "Minerals", "CO2_Emissi": 26164.1}}, {"type": "Feature", "id": "1652", "geometry": {"type": "Point", "coordinates": [-90.14366999999999, 29.915980000000047]}, "properties": {"Facility_N": "New NGC Inc.", "City": "Westwego", "State": "LA", "Latitude": 29.91598, "Longitude": -90.14367, "Industry_T": "Minerals", "CO2_Emissi": 26581.9}}, {"type": "Feature", "id": "1667", "geometry": {"type": "Point", "coordinates": [-91.11367999999999, 41.369830000000036]}, "properties": {"Facility_N": "Potters Industries, Inc. - Muscatine, IA", "City": "Muscatine", "State": "IA", "Latitude": 41.36983, "Longitude": -91.11368, "Industry_T": "Minerals", "CO2_Emissi": 26854.5}}, {"type": "Feature", "id": "1695", "geometry": {"type": "Point", "coordinates": [-99.09352999999999, 31.78603000000004]}, "properties": {"Facility_N": "Potters Industries, Inc. - Brownwood, TX", "City": "BROWNWOOD", "State": "TX", "Latitude": 31.78603, "Longitude": -99.09353, "Industry_T": "Minerals", "CO2_Emissi": 27184.4}}, {"type": "Feature", "id": "1698", "geometry": {"type": "Point", "coordinates": [-95.25590999999997, 29.761510000000044]}, "properties": {"Facility_N": "LONGHORN GLASS MANUFACTURING LP", "City": "HOUSTON", "State": "TX", "Latitude": 29.76151, "Longitude": -95.25591, "Industry_T": "Minerals", "CO2_Emissi": 27238.1}}, {"type": "Feature", "id": "1706", "geometry": {"type": "Point", "coordinates": [-81.66549999999995, 33.54813000000007]}, "properties": {"Facility_N": "Owens Corning", "City": "Aiken", "State": "SC", "Latitude": 33.54813, "Longitude": -81.6655, "Industry_T": "Minerals", "CO2_Emissi": 27337.6}}, {"type": "Feature", "id": "1784", "geometry": {"type": "Point", "coordinates": [-76.28687999999994, 36.824290000000076]}, "properties": {"Facility_N": "US GYPSUM - NORFOLK PLANT", "City": "NORFOLK", "State": "VA", "Latitude": 36.82429, "Longitude": -76.28688, "Industry_T": "Minerals", "CO2_Emissi": 28389.5}}, {"type": "Feature", "id": "1814", "geometry": {"type": "Point", "coordinates": [-78.83640999999994, 35.71365000000003]}, "properties": {"Facility_N": "Potters Industries, Inc. - Apex, NC", "City": "Apex", "State": "NC", "Latitude": 35.71365, "Longitude": -78.83641, "Industry_T": "Minerals", "CO2_Emissi": 28862.7}}, {"type": "Feature", "id": "1830", "geometry": {"type": "Point", "coordinates": [-79.89952099999994, 40.14311200000003]}, "properties": {"Facility_N": "World Kitchen - Charleroi Plant", "City": "Charleroi", "State": "PA", "Latitude": 40.143112, "Longitude": -79.899521, "Industry_T": "Minerals", "CO2_Emissi": 29050.3}}, {"type": "Feature", "id": "1864", "geometry": {"type": "Point", "coordinates": [-80.42047999999994, 37.17298000000005]}, "properties": {"Facility_N": "CORNING INCORPORATED - BLACKSBURG PLANT", "City": "CHRISTIANSBURG", "State": "VA", "Latitude": 37.17298, "Longitude": -80.42048, "Industry_T": "Minerals", "CO2_Emissi": 29661.7}}, {"type": "Feature", "id": "1874", "geometry": {"type": "Point", "coordinates": [-92.48341999999997, 44.55683000000005]}, "properties": {"Facility_N": "USG INTERIORS, LLC - RED WING PLANT", "City": "RED WING", "State": "MN", "Latitude": 44.55683, "Longitude": -92.48342, "Industry_T": "Minerals", "CO2_Emissi": 29808.6}}, {"type": "Feature", "id": "1882", "geometry": {"type": "Point", "coordinates": [-89.13858399999998, 41.37251400000008]}, "properties": {"Facility_N": "JAMES HARDIE BUILDING PRODUCTS, INC. (PERU)", "City": "PERU", "State": "IL", "Latitude": 41.372514, "Longitude": -89.138584, "Industry_T": "Minerals", "CO2_Emissi": 29882.4}}, {"type": "Feature", "id": "1886", "geometry": {"type": "Point", "coordinates": [-97.61304299999995, 38.76753300000007]}, "properties": {"Facility_N": "Philips Lighting Co.", "City": "Salina", "State": "KS", "Latitude": 38.767533, "Longitude": -97.613043, "Industry_T": "Minerals", "CO2_Emissi": 29945.7}}, {"type": "Feature", "id": "1897", "geometry": {"type": "Point", "coordinates": [-94.14589399999994, 42.479524000000026]}, "properties": {"Facility_N": "Georgia-Pacific Gypsum LLC - Fort Dodge", "City": "Fort Dodge", "State": "IA", "Latitude": 42.479524, "Longitude": -94.145894, "Industry_T": "Minerals", "CO2_Emissi": 30134.1}}, {"type": "Feature", "id": "1913", "geometry": {"type": "Point", "coordinates": [-92.90833299999997, 44.78944400000006]}, "properties": {"Facility_N": "3M Cottage Grove Center - Site", "City": "Cottage Grove", "State": "MN", "Latitude": 44.789444, "Longitude": -92.908333, "Industry_T": "Chemicals,Industrial Gas Suppliers,Minerals", "CO2_Emissi": 30443.8}}, {"type": "Feature", "id": "1936", "geometry": {"type": "Point", "coordinates": [-83.63530999999995, 32.803330000000074]}, "properties": {"Facility_N": "Cherokee Brick & Tile Company", "City": "Macon", "State": "GA", "Latitude": 32.80333, "Longitude": -83.63531, "Industry_T": "Minerals", "CO2_Emissi": 30933.5}}, {"type": "Feature", "id": "1971", "geometry": {"type": "Point", "coordinates": [-98.99651299999994, 31.671177000000057]}, "properties": {"Facility_N": "3M BROWNWOOD", "City": "BROWNWOOD", "State": "TX", "Latitude": 31.671177, "Longitude": -98.996513, "Industry_T": "Minerals", "CO2_Emissi": 31740.6}}, {"type": "Feature", "id": "1987", "geometry": {"type": "Point", "coordinates": [-99.00039999999996, 31.665260000000046]}, "properties": {"Facility_N": "Kohler Co. - Brownwood - Main Plant", "City": "Brownwood", "State": "TX", "Latitude": 31.66526, "Longitude": -99.0004, "Industry_T": "Minerals", "CO2_Emissi": 31911.6}}, {"type": "Feature", "id": "1993", "geometry": {"type": "Point", "coordinates": [-83.33397999999994, 33.97806000000003]}, "properties": {"Facility_N": "CertainTeed Corporation", "City": "Athens", "State": "GA", "Latitude": 33.97806, "Longitude": -83.33398, "Industry_T": "Minerals", "CO2_Emissi": 31965.0}}, {"type": "Feature", "id": "2017", "geometry": {"type": "Point", "coordinates": [-77.28793799999994, 41.74857700000007]}, "properties": {"Facility_N": "OSRAM SYLVANIA INC WELLSBORO PLT", "City": "WELLSBORO", "State": "PA", "Latitude": 41.748577, "Longitude": -77.287938, "Industry_T": "Minerals", "CO2_Emissi": 32348.7}}, {"type": "Feature", "id": "2046", "geometry": {"type": "Point", "coordinates": [-98.04106299999995, 29.608798000000036]}, "properties": {"Facility_N": "Georgia-Pacific Gypsum LLC - McQueeney", "City": "McQUEENEY", "State": "TX", "Latitude": 29.608798, "Longitude": -98.041063, "Industry_T": "Minerals", "CO2_Emissi": 32745.8}}, {"type": "Feature", "id": "2047", "geometry": {"type": "Point", "coordinates": [-87.53821999999997, 40.10824000000008]}, "properties": {"Facility_N": "Fiberteq, LLC", "City": "Danville", "State": "IL", "Latitude": 40.10824, "Longitude": -87.53822, "Industry_T": "Minerals", "CO2_Emissi": 32775.1}}, {"type": "Feature", "id": "2055", "geometry": {"type": "Point", "coordinates": [-74.82957999999996, 40.10465000000005]}, "properties": {"Facility_N": "NATIONAL GYPSUM", "City": "BURLINGTON", "State": "NJ", "Latitude": 40.10465, "Longitude": -74.82958, "Industry_T": "Minerals", "CO2_Emissi": 32855.2}}, {"type": "Feature", "id": "2056", "geometry": {"type": "Point", "coordinates": [-86.76484399999998, 38.659038000000066]}, "properties": {"Facility_N": "NEW NGC INC. DBA NATIONAL GYPSUM CO.", "City": "SHOALS", "State": "IN", "Latitude": 38.659038, "Longitude": -86.764844, "Industry_T": "Minerals", "CO2_Emissi": 32879.3}}, {"type": "Feature", "id": "2059", "geometry": {"type": "Point", "coordinates": [-70.76722199999995, 43.08805600000005]}, "properties": {"Facility_N": "NATIONAL GYPSUM WALLBOARD PLANT", "City": "PORTSMOUTH", "State": "NH", "Latitude": 43.088056, "Longitude": -70.767222, "Industry_T": "Minerals", "CO2_Emissi": 32947.7}}, {"type": "Feature", "id": "2060", "geometry": {"type": "Point", "coordinates": [-97.40797999999995, 32.40107000000006]}, "properties": {"Facility_N": "JAMES HARDIE BUILDING PRODUCTS, INC. (CLEB)", "City": "CLEBURNE", "State": "TX", "Latitude": 32.40107, "Longitude": -97.40798, "Industry_T": "Minerals", "CO2_Emissi": 32972.9}}, {"type": "Feature", "id": "2065", "geometry": {"type": "Point", "coordinates": [-71.51359899999994, 42.127451000000065]}, "properties": {"Facility_N": "Ardagh Glass Inc.", "City": "MILFORD", "State": "MA", "Latitude": 42.127451, "Longitude": -71.513599, "Industry_T": "Minerals", "CO2_Emissi": 33085.1}}, {"type": "Feature", "id": "2078", "geometry": {"type": "Point", "coordinates": [-106.35154699999998, 31.957737000000066]}, "properties": {"Facility_N": "DAL TILE INTERNATIONAL", "City": "EL PASO", "State": "TX", "Latitude": 31.957737, "Longitude": -106.351547, "Industry_T": "Minerals", "CO2_Emissi": 33321.5}}, {"type": "Feature", "id": "2089", "geometry": {"type": "Point", "coordinates": [-87.47429999999997, 41.65164000000004]}, "properties": {"Facility_N": "US GYPSUM - EAST CHICAGO PLANT", "City": "EAST CHICAGO", "State": "IN", "Latitude": 41.65164, "Longitude": -87.4743, "Industry_T": "Minerals", "CO2_Emissi": 33528.7}}, {"type": "Feature", "id": "2091", "geometry": {"type": "Point", "coordinates": [-87.26593999999994, 36.59803000000005]}, "properties": {"Facility_N": "MW/MB, LLC", "City": "Clarksville", "State": "TN", "Latitude": 36.59803, "Longitude": -87.26594, "Industry_T": "Minerals", "CO2_Emissi": 33564.2}}, {"type": "Feature", "id": "2097", "geometry": {"type": "Point", "coordinates": [-81.14690999999993, 32.10820000000007]}, "properties": {"Facility_N": "New NGC, Inc.", "City": "Garden City", "State": "GA", "Latitude": 32.1082, "Longitude": -81.14691, "Industry_T": "Minerals", "CO2_Emissi": 33631.9}}, {"type": "Feature", "id": "2129", "geometry": {"type": "Point", "coordinates": [-108.18599999999998, 44.71530000000007]}, "properties": {"Facility_N": "GEORGIA PACIFIC Gypsum LLC", "City": "LOVELL", "State": "WY", "Latitude": 44.7153, "Longitude": -108.186, "Industry_T": "Minerals", "CO2_Emissi": 34202.7}}, {"type": "Feature", "id": "2144", "geometry": {"type": "Point", "coordinates": [-81.63792999999998, 30.381790000000024]}, "properties": {"Facility_N": "US GYPSUM - JACKSONVILLE PLANT", "City": "JACKSONVILLE", "State": "FL", "Latitude": 30.38179, "Longitude": -81.63793, "Industry_T": "Minerals", "CO2_Emissi": 34385.3}}, {"type": "Feature", "id": "2153", "geometry": {"type": "Point", "coordinates": [-87.67035099999998, 34.82643100000007]}, "properties": {"Facility_N": "MONARCH CERAMIC TILE INC", "City": "FLORENCE", "State": "AL", "Latitude": 34.826431, "Longitude": -87.670351, "Industry_T": "Minerals", "CO2_Emissi": 34499.2}}, {"type": "Feature", "id": "2154", "geometry": {"type": "Point", "coordinates": [-85.85937099999995, 40.795672000000025]}, "properties": {"Facility_N": "THERMAFIBER INC", "City": "WABASH", "State": "IN", "Latitude": 40.795672, "Longitude": -85.859371, "Industry_T": "Minerals", "CO2_Emissi": 34502.8}}, {"type": "Feature", "id": "2168", "geometry": {"type": "Point", "coordinates": [-88.60192599999993, 42.535791000000074]}, "properties": {"Facility_N": "USG INTERIORS, LLC - WALWORTH PLANT", "City": "WALWORTH", "State": "WI", "Latitude": 42.535791, "Longitude": -88.601926, "Industry_T": "Minerals", "CO2_Emissi": 34796.3}}, {"type": "Feature", "id": "2169", "geometry": {"type": "Point", "coordinates": [-90.51888899999994, 37.85963900000007]}, "properties": {"Facility_N": "FLAT RIVER GLASS COMPANY", "City": "PARK HILLS", "State": "MO", "Latitude": 37.859639, "Longitude": -90.518889, "Industry_T": "Minerals", "CO2_Emissi": 34853.3}}, {"type": "Feature", "id": "2198", "geometry": {"type": "Point", "coordinates": [-93.26052999999996, 38.698920000000044]}, "properties": {"Facility_N": "PITTSBURGH CORNING CORPORATION", "City": "SEDALIA", "State": "MO", "Latitude": 38.69892, "Longitude": -93.26053, "Industry_T": "Minerals", "CO2_Emissi": 35388.8}}, {"type": "Feature", "id": "2207", "geometry": {"type": "Point", "coordinates": [-85.71529999999996, 38.03810000000004]}, "properties": {"Facility_N": "KENTUCKY SOLITE CORPORATION", "City": "Shephersville", "State": "KY", "Latitude": 38.0381, "Longitude": -85.7153, "Industry_T": "Minerals", "CO2_Emissi": 35643.6}}, {"type": "Feature", "id": "2212", "geometry": {"type": "Point", "coordinates": [-96.01730199999997, 32.16662800000006]}, "properties": {"Facility_N": "Acme Brick - Texas Clay Plants", "City": "Malakoff", "State": "TX", "Latitude": 32.166628, "Longitude": -96.017302, "Industry_T": "Minerals", "CO2_Emissi": 35776.1}}, {"type": "Feature", "id": "2229", "geometry": {"type": "Point", "coordinates": [-88.91030999999998, 35.63372000000004]}, "properties": {"Facility_N": "OWENS CORNING - JACKSON TN", "City": "JACKSON", "State": "TN", "Latitude": 35.63372, "Longitude": -88.91031, "Industry_T": "Minerals", "CO2_Emissi": 35994.7}}, {"type": "Feature", "id": "2233", "geometry": {"type": "Point", "coordinates": [-84.33929999999998, 41.304400000000044]}, "properties": {"Facility_N": "JOHNS MANVILLE INTERNATIONAL INC PLANT NO 8", "City": "DEFIANCE", "State": "OH", "Latitude": 41.3044, "Longitude": -84.3393, "Industry_T": "Minerals", "CO2_Emissi": 36066.4}}, {"type": "Feature", "id": "2250", "geometry": {"type": "Point", "coordinates": [-82.87499999999994, 41.491660000000024]}, "properties": {"Facility_N": "US GYPSUM - GYPSUM PLANT", "City": "GYPSUM", "State": "OH", "Latitude": 41.49166, "Longitude": -82.875, "Industry_T": "Minerals", "CO2_Emissi": 36387.7}}, {"type": "Feature", "id": "2276", "geometry": {"type": "Point", "coordinates": [-94.61473999999998, 39.14658000000003]}, "properties": {"Facility_N": "OWENS CORNING INSULATING SYSTEMS, LLC - KANSAS CITY", "City": "KANSAS CITY", "State": "KS", "Latitude": 39.14658, "Longitude": -94.61474, "Industry_T": "Minerals", "CO2_Emissi": 36978.9}}, {"type": "Feature", "id": "2283", "geometry": {"type": "Point", "coordinates": [-123.25700999999998, 44.55137000000008]}, "properties": {"Facility_N": "Hollingsworth & Vose Fiber Company", "City": "Corvallis", "State": "OR", "Latitude": 44.55137, "Longitude": -123.25701, "Industry_T": "Minerals", "CO2_Emissi": 37116.0}}, {"type": "Feature", "id": "2285", "geometry": {"type": "Point", "coordinates": [-85.05326999999994, 35.999790000000075]}, "properties": {"Facility_N": "STONEPEAK CERAMICS INC", "City": "CROSSVILLE", "State": "TN", "Latitude": 35.99979, "Longitude": -85.05327, "Industry_T": "Minerals", "CO2_Emissi": 37169.9}}, {"type": "Feature", "id": "2347", "geometry": {"type": "Point", "coordinates": [-122.56435999999997, 45.56390000000005]}, "properties": {"Facility_N": "OWENS-BROCKWAY GLASS CONTAINER INC. PLANT 21", "City": "PORTLAND", "State": "OR", "Latitude": 45.5639, "Longitude": -122.56436, "Industry_T": "Minerals", "CO2_Emissi": 38645.5}}, {"type": "Feature", "id": "2355", "geometry": {"type": "Point", "coordinates": [-121.79161999999997, 38.01340000000005]}, "properties": {"Facility_N": "Georgia-Pacific Gypsum LLC", "City": "Antioch", "State": "CA", "Latitude": 38.0134, "Longitude": -121.79162, "Industry_T": "Minerals", "CO2_Emissi": 38894.3}}, {"type": "Feature", "id": "2378", "geometry": {"type": "Point", "coordinates": [-106.59346999999997, 35.17237000000006]}, "properties": {"Facility_N": "AMERICAN GYPSUM COMPANY", "City": "ALBUQUERQUE", "State": "NM", "Latitude": 35.17237, "Longitude": -106.59347, "Industry_T": "Minerals", "CO2_Emissi": 39357.2}}, {"type": "Feature", "id": "2379", "geometry": {"type": "Point", "coordinates": [-99.81819399999995, 34.32394400000004]}, "properties": {"Facility_N": "ACME GYPSUM FACILITY", "City": "QUANAH", "State": "TX", "Latitude": 34.323944, "Longitude": -99.818194, "Industry_T": "Minerals", "CO2_Emissi": 39377.9}}, {"type": "Feature", "id": "2420", "geometry": {"type": "Point", "coordinates": [-97.13570699999997, 33.188675000000046]}, "properties": {"Facility_N": "Acme Brick - Denton Plant", "City": "Denton", "State": "TX", "Latitude": 33.188675, "Longitude": -97.135707, "Industry_T": "Minerals", "CO2_Emissi": 40479.0}}, {"type": "Feature", "id": "2421", "geometry": {"type": "Point", "coordinates": [-71.80149999999998, 42.30480000000006]}, "properties": {"Facility_N": "SAINT-GOBAIN ABRASIVES and SAINT-GOBAIN CERAMICS & PLASTICS, INC.", "City": "WORCESTER", "State": "MA", "Latitude": 42.3048, "Longitude": -71.8015, "Industry_T": "Minerals", "CO2_Emissi": 40483.2}}, {"type": "Feature", "id": "2425", "geometry": {"type": "Point", "coordinates": [-108.40539999999999, 44.83780000000007]}, "properties": {"Facility_N": "THE WESTERN SUGAR COOPERATIVE", "City": "LOVELL", "State": "WY", "Latitude": 44.8378, "Longitude": -108.4054, "Industry_T": "Minerals", "CO2_Emissi": 40531.4}}, {"type": "Feature", "id": "2481", "geometry": {"type": "Point", "coordinates": [-100.33640199999996, 32.48051600000008]}, "properties": {"Facility_N": "G P GYPSUM SWEETWATER WALLBOARD PLANT", "City": "SWEETWATER", "State": "TX", "Latitude": 32.480516, "Longitude": -100.336402, "Industry_T": "Minerals", "CO2_Emissi": 41765.9}}, {"type": "Feature", "id": "2484", "geometry": {"type": "Point", "coordinates": [-73.86754099999996, 42.583541000000025]}, "properties": {"Facility_N": "OWENS CORNING INSULATING SYSTEMS, LLC - DELMAR", "City": "FEURA BUSH", "State": "NY", "Latitude": 42.583541, "Longitude": -73.867541, "Industry_T": "Minerals", "CO2_Emissi": 41825.6}}, {"type": "Feature", "id": "2495", "geometry": {"type": "Point", "coordinates": [-84.85544999999996, 39.12500000000006]}, "properties": {"Facility_N": "Anchor Glass Container. - Plant 42", "City": "LAWRENCEBURG", "State": "IN", "Latitude": 39.125, "Longitude": -84.85545, "Industry_T": "Minerals", "CO2_Emissi": 41940.0}}, {"type": "Feature", "id": "2500", "geometry": {"type": "Point", "coordinates": [-95.24403999999998, 29.723670000000027]}, "properties": {"Facility_N": "US GYPSUM - GALENA PARK PLANT", "City": "GALENA PARK", "State": "TX", "Latitude": 29.72367, "Longitude": -95.24404, "Industry_T": "Minerals", "CO2_Emissi": 42047.1}}, {"type": "Feature", "id": "2506", "geometry": {"type": "Point", "coordinates": [-115.38252999999997, 36.048650000000066]}, "properties": {"Facility_N": "CertainTeed Gypsum Manufacturing", "City": "Las Vegas", "State": "NV", "Latitude": 36.04865, "Longitude": -115.38253, "Industry_T": "Minerals", "CO2_Emissi": 42174.8}}, {"type": "Feature", "id": "2520", "geometry": {"type": "Point", "coordinates": [-81.05235999999996, 32.074700000000064]}, "properties": {"Facility_N": "GEORGIA PACIFIC GYPSUM", "City": "SAVANNAH", "State": "GA", "Latitude": 32.0747, "Longitude": -81.05236, "Industry_T": "Minerals", "CO2_Emissi": 42657.2}}, {"type": "Feature", "id": "2521", "geometry": {"type": "Point", "coordinates": [-122.39726199999996, 47.27136500000006]}, "properties": {"Facility_N": "GRAYMONT WESTERN US INC", "City": "TACOMA", "State": "WA", "Latitude": 47.271365, "Longitude": -122.397262, "Industry_T": "Minerals", "CO2_Emissi": 42658.1}}, {"type": "Feature", "id": "2534", "geometry": {"type": "Point", "coordinates": [-82.40187999999995, 40.06970000000007]}, "properties": {"Facility_N": "OWENS CORNING INSULATING SYSTEMS, LLC - NEWARK", "City": "NEWARK", "State": "OH", "Latitude": 40.0697, "Longitude": -82.40188, "Industry_T": "Minerals", "CO2_Emissi": 43225.4}}, {"type": "Feature", "id": "2541", "geometry": {"type": "Point", "coordinates": [-100.44888999999995, 32.836460000000045]}, "properties": {"Facility_N": "ROTAN GYPSUM PLANT", "City": "ROTAN", "State": "TX", "Latitude": 32.83646, "Longitude": -100.44889, "Industry_T": "Minerals", "CO2_Emissi": 43325.5}}, {"type": "Feature", "id": "2587", "geometry": {"type": "Point", "coordinates": [-82.82181999999995, 32.96484000000004]}, "properties": {"Facility_N": "IMERYS SANDERSVILLE CALCINE PLANT", "City": "SANDERSVILLE", "State": "GA", "Latitude": 32.96484, "Longitude": -82.82182, "Industry_T": "Minerals", "CO2_Emissi": 44524.0}}, {"type": "Feature", "id": "2611", "geometry": {"type": "Point", "coordinates": [-111.44103999999999, 40.716350000000034]}, "properties": {"Facility_N": "Utelite Corp.", "City": "Coalville", "State": "UT", "Latitude": 40.71635, "Longitude": -111.44104, "Industry_T": "Minerals", "CO2_Emissi": 45158.2}}, {"type": "Feature", "id": "2617", "geometry": {"type": "Point", "coordinates": [-80.28079999999994, 40.691520000000025]}, "properties": {"Facility_N": "ANCHOR ACQUISITION LLC MONACA PLT", "City": "MONACA", "State": "PA", "Latitude": 40.69152, "Longitude": -80.2808, "Industry_T": "Minerals", "CO2_Emissi": 45360.5}}, {"type": "Feature", "id": "2647", "geometry": {"type": "Point", "coordinates": [-94.16773899999998, 42.48663300000004]}, "properties": {"Facility_N": "NEW NGC INC D/B/A NATIONAL GYPSUM CO", "City": "FORT DODGE", "State": "IA", "Latitude": 42.486633, "Longitude": -94.167739, "Industry_T": "Minerals", "CO2_Emissi": 45870.0}}, {"type": "Feature", "id": "2655", "geometry": {"type": "Point", "coordinates": [-84.36479999999995, 41.28590000000003]}, "properties": {"Facility_N": "JOHNS MANVILLE PLANT NO 2", "City": "DEFIANCE", "State": "OH", "Latitude": 41.2859, "Longitude": -84.3648, "Industry_T": "Minerals", "CO2_Emissi": 46068.9}}, {"type": "Feature", "id": "2663", "geometry": {"type": "Point", "coordinates": [-85.72786999999994, 34.96270000000004]}, "properties": {"Facility_N": "US GYPSUM - BRIDGEPORT PLANT", "City": "BRIDGEPORT", "State": "AL", "Latitude": 34.9627, "Longitude": -85.72787, "Industry_T": "Minerals", "CO2_Emissi": 46250.8}}, {"type": "Feature", "id": "2673", "geometry": {"type": "Point", "coordinates": [-98.59132399999999, 37.28148100000004]}, "properties": {"Facility_N": "NEW NGC INC D/B/A NATIONAL GYPSUM CO", "City": "MEDICINE LODGE", "State": "KS", "Latitude": 37.281481, "Longitude": -98.591324, "Industry_T": "Minerals", "CO2_Emissi": 46566.3}}, {"type": "Feature", "id": "2675", "geometry": {"type": "Point", "coordinates": [-79.98353799999995, 41.07488500000005]}, "properties": {"Facility_N": "MERCER LIME CO", "City": "SLIPPERY ROCK", "State": "PA", "Latitude": 41.074885, "Longitude": -79.983538, "Industry_T": "Minerals", "CO2_Emissi": 46608.3}}, {"type": "Feature", "id": "2692", "geometry": {"type": "Point", "coordinates": [-91.04955599999994, 33.422250000000076]}, "properties": {"Facility_N": "USG INTERIORS, LLC - GREENVILLE PLANT", "City": "GREENVILLE", "State": "MS", "Latitude": 33.42225, "Longitude": -91.049556, "Industry_T": "Minerals", "CO2_Emissi": 47360.4}}, {"type": "Feature", "id": "2706", "geometry": {"type": "Point", "coordinates": [-122.33733999999998, 47.54791000000006]}, "properties": {"Facility_N": "CERTAINTEED GYPSUM SEATTLE", "City": "SEATTLE", "State": "WA", "Latitude": 47.54791, "Longitude": -122.33734, "Industry_T": "Minerals", "CO2_Emissi": 47898.4}}, {"type": "Feature", "id": "2714", "geometry": {"type": "Point", "coordinates": [-79.32478999999995, 36.60268000000008]}, "properties": {"Facility_N": "OWENS-BROCKWAY GLASS CONTAINER INC. PLANT 29", "City": "RINGGOLD", "State": "VA", "Latitude": 36.60268, "Longitude": -79.32479, "Industry_T": "Minerals", "CO2_Emissi": 48226.3}}, {"type": "Feature", "id": "2715", "geometry": {"type": "Point", "coordinates": [-98.22769399999999, 34.84069400000004]}, "properties": {"Facility_N": "Georgia-Pacific Gypsum LLC - Fletcher", "City": "FLETCHER", "State": "OK", "Latitude": 34.840694, "Longitude": -98.227694, "Industry_T": "Minerals", "CO2_Emissi": 48245.3}}, {"type": "Feature", "id": "2736", "geometry": {"type": "Point", "coordinates": [-122.39486899999997, 47.269558000000075]}, "properties": {"Facility_N": "GEORGIA-PACIFIC GYPSUM LLC", "City": "TACOMA", "State": "WA", "Latitude": 47.269558, "Longitude": -122.394869, "Industry_T": "Minerals", "CO2_Emissi": 48775.0}}, {"type": "Feature", "id": "2765", "geometry": {"type": "Point", "coordinates": [-70.80187999999998, 43.10142100000007]}, "properties": {"Facility_N": "Georgia-Pacific Gypsum", "City": "Newington", "State": "NH", "Latitude": 43.101421, "Longitude": -70.80188, "Industry_T": "Minerals", "CO2_Emissi": 49477.2}}, {"type": "Feature", "id": "2773", "geometry": {"type": "Point", "coordinates": [-80.23889999999994, 40.627800000000036]}, "properties": {"Facility_N": "US GYPSUM - ALIQUIPPA PLANT", "City": "ALIQUIPPA", "State": "PA", "Latitude": 40.6278, "Longitude": -80.2389, "Industry_T": "Minerals", "CO2_Emissi": 49758.3}}, {"type": "Feature", "id": "2829", "geometry": {"type": "Point", "coordinates": [-122.96779999999995, 46.09980000000007]}, "properties": {"Facility_N": "US GYPSUM - RAINIER PLANT", "City": "RAINIER", "State": "OR", "Latitude": 46.0998, "Longitude": -122.9678, "Industry_T": "Minerals", "CO2_Emissi": 51375.1}}, {"type": "Feature", "id": "2838", "geometry": {"type": "Point", "coordinates": [-104.18899999999996, 42.04790000000003]}, "properties": {"Facility_N": "Western Sugar Cooperative", "City": "TORRINGTON", "State": "WY", "Latitude": 42.0479, "Longitude": -104.189, "Industry_T": "Minerals,Waste", "CO2_Emissi": 51776.8}}, {"type": "Feature", "id": "2844", "geometry": {"type": "Point", "coordinates": [-96.85038999999995, 32.44126000000006]}, "properties": {"Facility_N": "OWENS CORNING INSULATING SYSTEMS, LLC - WAXAHACHIE", "City": "WAXAHACHIE", "State": "TX", "Latitude": 32.44126, "Longitude": -96.85039, "Industry_T": "Minerals", "CO2_Emissi": 52154.7}}, {"type": "Feature", "id": "2849", "geometry": {"type": "Point", "coordinates": [-87.03280999999998, 41.21588000000003]}, "properties": {"Facility_N": "GEORGIA-PACIFIC GYPSUM LLC, WHEATFIELD, INDIANA", "City": "WHEATFIELD", "State": "IN", "Latitude": 41.21588, "Longitude": -87.03281, "Industry_T": "Minerals", "CO2_Emissi": 52313.7}}, {"type": "Feature", "id": "2851", "geometry": {"type": "Point", "coordinates": [-80.28094999999996, 35.756170000000054]}, "properties": {"Facility_N": "PPG INDUSTRIES FIBER GLASS PRODUCTS INC", "City": "LEXINGTON", "State": "NC", "Latitude": 35.75617, "Longitude": -80.28095, "Industry_T": "Minerals", "CO2_Emissi": 52420.2}}, {"type": "Feature", "id": "2854", "geometry": {"type": "Point", "coordinates": [-87.25803999999994, 36.60743000000008]}, "properties": {"Facility_N": "FLORIM USA INC", "City": "CLARKSVILLE", "State": "TN", "Latitude": 36.60743, "Longitude": -87.25804, "Industry_T": "Minerals", "CO2_Emissi": 52499.8}}, {"type": "Feature", "id": "2912", "geometry": {"type": "Point", "coordinates": [-89.35379999999998, 40.15764000000007]}, "properties": {"Facility_N": "Ardagh Glass Inc.", "City": "LINCOLN", "State": "IL", "Latitude": 40.15764, "Longitude": -89.3538, "Industry_T": "Minerals", "CO2_Emissi": 54739.2}}, {"type": "Feature", "id": "2915", "geometry": {"type": "Point", "coordinates": [-75.21888999999999, 39.40778000000006]}, "properties": {"Facility_N": "Ardagh Glass Inc.", "City": "BRIDGETON", "State": "NJ", "Latitude": 39.40778, "Longitude": -75.21889, "Industry_T": "Minerals", "CO2_Emissi": 54836.7}}, {"type": "Feature", "id": "2943", "geometry": {"type": "Point", "coordinates": [-97.29206999999997, 30.329030000000046]}, "properties": {"Facility_N": "ACME BRICK CO ELGIN PLANT", "City": "ELGIN", "State": "TX", "Latitude": 30.32903, "Longitude": -97.29207, "Industry_T": "Minerals", "CO2_Emissi": 55800.7}}, {"type": "Feature", "id": "2960", "geometry": {"type": "Point", "coordinates": [-81.06039999999996, 32.07069000000007]}, "properties": {"Facility_N": "BASF CORP SAVANNAH OPERATIONS", "City": "SAVANNAH", "State": "GA", "Latitude": 32.07069, "Longitude": -81.0604, "Industry_T": "Minerals", "CO2_Emissi": 56374.1}}, {"type": "Feature", "id": "2969", "geometry": {"type": "Point", "coordinates": [-86.71483999999998, 38.68359000000004]}, "properties": {"Facility_N": "US GYPSUM - SHOALS PLANT", "City": "SHOALS", "State": "IN", "Latitude": 38.68359, "Longitude": -86.71484, "Industry_T": "Minerals", "CO2_Emissi": 56902.9}}, {"type": "Feature", "id": "2990", "geometry": {"type": "Point", "coordinates": [-76.79755999999998, 37.38635000000005]}, "properties": {"Facility_N": "OWENS-BROCKWAY GLASS CONTAINER INC. PlANT 26", "City": "TOANO", "State": "VA", "Latitude": 37.38635, "Longitude": -76.79756, "Industry_T": "Minerals", "CO2_Emissi": 57625.0}}, {"type": "Feature", "id": "2992", "geometry": {"type": "Point", "coordinates": [-106.93916899999999, 39.66067000000004]}, "properties": {"Facility_N": "AMERICAN GYPSUM COMPANY", "City": "GYPSUM", "State": "CO", "Latitude": 39.66067, "Longitude": -106.939169, "Industry_T": "Minerals", "CO2_Emissi": 57660.1}}, {"type": "Feature", "id": "3036", "geometry": {"type": "Point", "coordinates": [-76.66129699999993, 41.05713100000003]}, "properties": {"Facility_N": "US GYPSUM - WASHINGTONVILLE PLANT", "City": "DANVILLE", "State": "PA", "Latitude": 41.057131, "Longitude": -76.661297, "Industry_T": "Minerals", "CO2_Emissi": 59095.8}}, {"type": "Feature", "id": "3043", "geometry": {"type": "Point", "coordinates": [-87.76387999999997, 43.73750000000007]}, "properties": {"Facility_N": "Kohler Co.", "City": "Kohler", "State": "WI", "Latitude": 43.7375, "Longitude": -87.76388, "Industry_T": "Minerals,Waste", "CO2_Emissi": 59460.9}}, {"type": "Feature", "id": "3050", "geometry": {"type": "Point", "coordinates": [-80.81115999999997, 39.81534300000004]}, "properties": {"Facility_N": "CERTAINTEED GYPSUM", "City": "PROCTOR", "State": "WV", "Latitude": 39.815343, "Longitude": -80.81116, "Industry_T": "Minerals", "CO2_Emissi": 59650.4}}, {"type": "Feature", "id": "3068", "geometry": {"type": "Point", "coordinates": [-85.85344999999995, 40.06493000000006]}, "properties": {"Facility_N": "OWENS-BROCKWAY GLASS CONTAINER INC. PLANT 08", "City": "LAPEL", "State": "IN", "Latitude": 40.06493, "Longitude": -85.85345, "Industry_T": "Minerals", "CO2_Emissi": 60487.0}}, {"type": "Feature", "id": "3105", "geometry": {"type": "Point", "coordinates": [-83.51714099999998, 41.66853200000003]}, "properties": {"Facility_N": "Libbey Glass Inc.", "City": "Toledo", "State": "OH", "Latitude": 41.668532, "Longitude": -83.517141, "Industry_T": "Minerals", "CO2_Emissi": 62316.7}}, {"type": "Feature", "id": "3107", "geometry": {"type": "Point", "coordinates": [-83.72025999999994, 41.52197000000007]}, "properties": {"Facility_N": "Johns Manville", "City": "Waterville", "State": "OH", "Latitude": 41.52197, "Longitude": -83.72026, "Industry_T": "Minerals", "CO2_Emissi": 62509.4}}, {"type": "Feature", "id": "3114", "geometry": {"type": "Point", "coordinates": [-78.28313999999995, 41.811120000000074]}, "properties": {"Facility_N": "Ardagh Glass Inc.", "City": "PORT ALLEGANY", "State": "PA", "Latitude": 41.81112, "Longitude": -78.28314, "Industry_T": "Minerals", "CO2_Emissi": 62678.4}}, {"type": "Feature", "id": "3126", "geometry": {"type": "Point", "coordinates": [-83.39520999999996, 43.480800000000045]}, "properties": {"Facility_N": "MICHIGAN SUGAR CO - CARO FACTORY", "City": "CARO", "State": "MI", "Latitude": 43.4808, "Longitude": -83.39521, "Industry_T": "Minerals", "CO2_Emissi": 63147.3}}, {"type": "Feature", "id": "3131", "geometry": {"type": "Point", "coordinates": [-97.39239999999995, 32.38548000000003]}, "properties": {"Facility_N": "Johns Manville", "City": "Cleburne", "State": "TX", "Latitude": 32.38548, "Longitude": -97.3924, "Industry_T": "Minerals", "CO2_Emissi": 63498.7}}, {"type": "Feature", "id": "3133", "geometry": {"type": "Point", "coordinates": [-118.21719999999999, 33.99720000000008]}, "properties": {"Facility_N": "OWENS-BROCKWAY GLASS CONTAINER INC. PLANT #23", "City": "VERNON", "State": "CA", "Latitude": 33.9972, "Longitude": -118.2172, "Industry_T": "Minerals", "CO2_Emissi": 63548.2}}, {"type": "Feature", "id": "3139", "geometry": {"type": "Point", "coordinates": [-81.64109099999996, 40.51490200000006]}, "properties": {"Facility_N": "THE BELDEN BRICK COMPANY (0679000118)", "City": "SUGARCREEK", "State": "OH", "Latitude": 40.514902, "Longitude": -81.641091, "Industry_T": "Minerals", "CO2_Emissi": 63821.9}}, {"type": "Feature", "id": "3161", "geometry": {"type": "Point", "coordinates": [-79.05597699999998, 36.49011000000007]}, "properties": {"Facility_N": "CertainTeed Gypsum NC, Inc.", "City": "Semora", "State": "NC", "Latitude": 36.49011, "Longitude": -79.055977, "Industry_T": "Minerals", "CO2_Emissi": 65044.7}}, {"type": "Feature", "id": "3162", "geometry": {"type": "Point", "coordinates": [-91.18871999999999, 40.98626500000006]}, "properties": {"Facility_N": "US GYPSUM - SPERRY PLANT", "City": "MEDIAPOLIS", "State": "IA", "Latitude": 40.986265, "Longitude": -91.18872, "Industry_T": "Minerals", "CO2_Emissi": 65086.3}}, {"type": "Feature", "id": "3166", "geometry": {"type": "Point", "coordinates": [-88.82537399999995, 41.12833400000005]}, "properties": {"Facility_N": "OWENS-BROCKWAY GLASS CONTAINER INC. PLANT 09", "City": "STREATOR", "State": "IL", "Latitude": 41.128334, "Longitude": -88.825374, "Industry_T": "Minerals", "CO2_Emissi": 65159.8}}, {"type": "Feature", "id": "3169", "geometry": {"type": "Point", "coordinates": [-115.11151999999998, 32.71831100000003]}, "properties": {"Facility_N": "US GYPSUM - PLASTER CITY PLANT", "City": "EL CENTRO", "State": "CA", "Latitude": 32.718311, "Longitude": -115.11152, "Industry_T": "Minerals", "CO2_Emissi": 65268.7}}, {"type": "Feature", "id": "3172", "geometry": {"type": "Point", "coordinates": [-93.79944399999994, 32.46944400000007]}, "properties": {"Facility_N": "LIBBEY GLASS INC", "City": "SHREVEPORT", "State": "LA", "Latitude": 32.469444, "Longitude": -93.799444, "Industry_T": "Minerals", "CO2_Emissi": 65387.0}}, {"type": "Feature", "id": "3173", "geometry": {"type": "Point", "coordinates": [-82.61955199999994, 43.266053000000056]}, "properties": {"Facility_N": "MICHIGAN SUGAR CO - CROSWELL FACTORY", "City": "CROSWELL", "State": "MI", "Latitude": 43.266053, "Longitude": -82.619552, "Industry_T": "Minerals", "CO2_Emissi": 65425.9}}, {"type": "Feature", "id": "3175", "geometry": {"type": "Point", "coordinates": [-100.36139999999995, 32.49150000000003]}, "properties": {"Facility_N": "United States Gypsum Company of Sweetwater", "City": "SWEETWATER", "State": "TX", "Latitude": 32.4915, "Longitude": -100.3614, "Industry_T": "Minerals", "CO2_Emissi": 65473.6}}, {"type": "Feature", "id": "3178", "geometry": {"type": "Point", "coordinates": [-90.53010999999998, 37.88913000000008]}, "properties": {"Facility_N": "Valley Minerals", "City": "Bonne Terre", "State": "MO", "Latitude": 37.88913, "Longitude": -90.53011, "Industry_T": "Minerals", "CO2_Emissi": 65664.5}}, {"type": "Feature", "id": "3180", "geometry": {"type": "Point", "coordinates": [-81.71258399999994, 30.349681000000032]}, "properties": {"Facility_N": "Anchor Glass Container Corporation. - Plant 07", "City": "JACKSONVILLE", "State": "FL", "Latitude": 30.349681, "Longitude": -81.712584, "Industry_T": "Minerals", "CO2_Emissi": 66171.6}}, {"type": "Feature", "id": "3214", "geometry": {"type": "Point", "coordinates": [-79.34833299999997, 33.336783000000025]}, "properties": {"Facility_N": "Georgetown Facility", "City": "Georgetown", "State": "SC", "Latitude": 33.336783, "Longitude": -79.348333, "Industry_T": "Minerals", "CO2_Emissi": 67514.6}}, {"type": "Feature", "id": "3217", "geometry": {"type": "Point", "coordinates": [-85.77183499999995, 39.53428700000006]}, "properties": {"Facility_N": "KNAUF Insulation GMBH", "City": "SHELBYVILLE", "State": "IN", "Latitude": 39.534287, "Longitude": -85.771835, "Industry_T": "Minerals", "CO2_Emissi": 67615.7}}, {"type": "Feature", "id": "3224", "geometry": {"type": "Point", "coordinates": [-95.34008299999994, 35.76852800000006]}, "properties": {"Facility_N": "OWENS BROCKWAY GLASS CONTAINER INCORPORATED", "City": "MUSKOGEE", "State": "OK", "Latitude": 35.768528, "Longitude": -95.340083, "Industry_T": "Minerals", "CO2_Emissi": 68072.8}}, {"type": "Feature", "id": "3229", "geometry": {"type": "Point", "coordinates": [-92.46862599999997, 46.724443000000065]}, "properties": {"Facility_N": "USG Interiors, Inc.", "City": "Cloquet", "State": "MN", "Latitude": 46.724443, "Longitude": -92.468626, "Industry_T": "Minerals", "CO2_Emissi": 68243.3}}, {"type": "Feature", "id": "3240", "geometry": {"type": "Point", "coordinates": [-83.70678999999996, 41.53034000000008]}, "properties": {"Facility_N": "JOHNS MANVILLE", "City": "WATERVILLE", "State": "OH", "Latitude": 41.53034, "Longitude": -83.70679, "Industry_T": "Minerals", "CO2_Emissi": 68679.3}}, {"type": "Feature", "id": "3249", "geometry": {"type": "Point", "coordinates": [-73.97679499999998, 42.050189000000046]}, "properties": {"Facility_N": "NORTHEAST SOLITE CORPORATION", "City": "Saugerties", "State": "NY", "Latitude": 42.050189, "Longitude": -73.976795, "Industry_T": "Minerals", "CO2_Emissi": 69108.3}}, {"type": "Feature", "id": "3251", "geometry": {"type": "Point", "coordinates": [-82.37332999999995, 27.800260000000037]}, "properties": {"Facility_N": "NEW NGC, INC", "City": "GIBSONTON", "State": "FL", "Latitude": 27.80026, "Longitude": -82.37333, "Industry_T": "Minerals", "CO2_Emissi": 69177.7}}, {"type": "Feature", "id": "3258", "geometry": {"type": "Point", "coordinates": [-101.85689999999994, 35.11540000000008]}, "properties": {"Facility_N": "Owens Corning Vetrotex - Amarillo Plant", "City": "Amarillo", "State": "TX", "Latitude": 35.1154, "Longitude": -101.8569, "Industry_T": "Minerals", "CO2_Emissi": 69678.9}}, {"type": "Feature", "id": "3259", "geometry": {"type": "Point", "coordinates": [-73.94919799999997, 41.26394800000003]}, "properties": {"Facility_N": "Continental Buchanan, LLC.", "City": "BUCHANAN", "State": "NY", "Latitude": 41.263948, "Longitude": -73.949198, "Industry_T": "Minerals", "CO2_Emissi": 69846.2}}, {"type": "Feature", "id": "3283", "geometry": {"type": "Point", "coordinates": [-80.41979999999995, 40.62898000000007]}, "properties": {"Facility_N": "NGC INDUSTRIES INC", "City": "SHIPPINGPORT", "State": "PA", "Latitude": 40.62898, "Longitude": -80.4198, "Industry_T": "Minerals", "CO2_Emissi": 70687.5}}, {"type": "Feature", "id": "3306", "geometry": {"type": "Point", "coordinates": [-88.29059999999998, 42.662600000000054]}, "properties": {"Facility_N": "Ardagh Glass Inc.", "City": "BURLINGTON", "State": "WI", "Latitude": 42.6626, "Longitude": -88.2906, "Industry_T": "Minerals", "CO2_Emissi": 71649.6}}, {"type": "Feature", "id": "3334", "geometry": {"type": "Point", "coordinates": [-80.21777999999995, 35.950270000000046]}, "properties": {"Facility_N": "OWENS-BROCKWAY GLASS CONTAINER INC. - PLANT 06", "City": "LEXINGTON", "State": "NC", "Latitude": 35.95027, "Longitude": -80.21778, "Industry_T": "Minerals", "CO2_Emissi": 73201.2}}, {"type": "Feature", "id": "3352", "geometry": {"type": "Point", "coordinates": [-76.76917999999995, 39.94778000000008]}, "properties": {"Facility_N": "LEHIGH CEMENT CO LLC", "City": "YORK", "State": "PA", "Latitude": 39.94778, "Longitude": -76.76918, "Industry_T": "Minerals", "CO2_Emissi": 74084.6}}, {"type": "Feature", "id": "3365", "geometry": {"type": "Point", "coordinates": [-78.39188299999995, 36.29106600000006]}, "properties": {"Facility_N": "Ardagh Glass Inc.", "City": "Henderson", "State": "NC", "Latitude": 36.291066, "Longitude": -78.391883, "Industry_T": "Minerals", "CO2_Emissi": 74757.4}}, {"type": "Feature", "id": "3371", "geometry": {"type": "Point", "coordinates": [-95.38610999999997, 35.70651000000004]}, "properties": {"Facility_N": "DAL-ITALIA", "City": "MUSKOGEE", "State": "OK", "Latitude": 35.70651, "Longitude": -95.38611, "Industry_T": "Minerals", "CO2_Emissi": 74941.6}}, {"type": "Feature", "id": "3395", "geometry": {"type": "Point", "coordinates": [-76.55829999999997, 42.96399000000008]}, "properties": {"Facility_N": "OWENS-BROCKWAY GLASS CONTAINER INC PLANT #35", "City": "AUBURN", "State": "NY", "Latitude": 42.96399, "Longitude": -76.5583, "Industry_T": "Minerals", "CO2_Emissi": 76222.0}}, {"type": "Feature", "id": "3425", "geometry": {"type": "Point", "coordinates": [-122.33654999999999, 47.55262000000005]}, "properties": {"Facility_N": "Ardagh Glass Inc.", "City": "SEATTLE", "State": "WA", "Latitude": 47.55262, "Longitude": -122.33655, "Industry_T": "Minerals", "CO2_Emissi": 77783.3}}, {"type": "Feature", "id": "3430", "geometry": {"type": "Point", "coordinates": [-80.99959999999999, 35.32450000000006]}, "properties": {"Facility_N": "NEW NGC INC (DBA NATIONAL GYPSUM CO)", "City": "MOUNT HOLLY", "State": "NC", "Latitude": 35.3245, "Longitude": -80.9996, "Industry_T": "Minerals", "CO2_Emissi": 78017.1}}, {"type": "Feature", "id": "3449", "geometry": {"type": "Point", "coordinates": [-93.46703999999994, 44.798730000000035]}, "properties": {"Facility_N": "Anchor Glass Container Corporation. - Plant 12", "City": "SHAKOPEE", "State": "MN", "Latitude": 44.79873, "Longitude": -93.46704, "Industry_T": "Minerals", "CO2_Emissi": 79535.6}}, {"type": "Feature", "id": "3450", "geometry": {"type": "Point", "coordinates": [-120.10411999999997, 36.92375000000004]}, "properties": {"Facility_N": "Ardagh Glass Inc.", "City": "MADERA", "State": "CA", "Latitude": 36.92375, "Longitude": -120.10412, "Industry_T": "Minerals", "CO2_Emissi": 79647.2}}, {"type": "Feature", "id": "3455", "geometry": {"type": "Point", "coordinates": [-76.55526999999995, 39.263780000000054]}, "properties": {"Facility_N": "NATIONAL GYPSUM", "City": "BALTIMORE", "State": "MD", "Latitude": 39.26378, "Longitude": -76.55527, "Industry_T": "Minerals", "CO2_Emissi": 80009.5}}, {"type": "Feature", "id": "3486", "geometry": {"type": "Point", "coordinates": [-115.56679999999994, 32.909800000000075]}, "properties": {"Facility_N": "HOLLY SUGAR CORP DBA SPRECKELS COMPANY", "City": "BRAWLEY", "State": "CA", "Latitude": 32.9098, "Longitude": -115.5668, "Industry_T": "Minerals", "CO2_Emissi": 81509.3}}, {"type": "Feature", "id": "3493", "geometry": {"type": "Point", "coordinates": [-87.59965999999997, 41.642120000000034]}, "properties": {"Facility_N": "Ardagh Glass Inc.", "City": "DOLTON", "State": "IL", "Latitude": 41.64212, "Longitude": -87.59966, "Industry_T": "Minerals", "CO2_Emissi": 81940.5}}, {"type": "Feature", "id": "3497", "geometry": {"type": "Point", "coordinates": [-90.40094399999998, 38.29516700000005]}, "properties": {"Facility_N": "Ardagh Glass Inc.", "City": "PEVELY", "State": "MO", "Latitude": 38.295167, "Longitude": -90.400944, "Industry_T": "Minerals", "CO2_Emissi": 82188.0}}, {"type": "Feature", "id": "3530", "geometry": {"type": "Point", "coordinates": [-121.60533999999996, 36.74700000000007]}, "properties": {"Facility_N": "LHOIST NORTH AMERICA -  NATIVIDAD PLANT", "City": "SALINAS", "State": "CA", "Latitude": 36.747, "Longitude": -121.60534, "Industry_T": "Minerals", "CO2_Emissi": 83911.3}}, {"type": "Feature", "id": "3532", "geometry": {"type": "Point", "coordinates": [-82.01773099999997, 39.94878200000005]}, "properties": {"Facility_N": "OWENS-BROCKWAY GLASS CONTAINER INC PLANT NO 12", "City": "ZANESVILLE", "State": "OH", "Latitude": 39.948782, "Longitude": -82.017731, "Industry_T": "Minerals", "CO2_Emissi": 83984.0}}, {"type": "Feature", "id": "3547", "geometry": {"type": "Point", "coordinates": [-84.41889999999995, 33.668630000000064]}, "properties": {"Facility_N": "OWENS-BROCKWAY GLASS CONTAINER INC PLANT #10", "City": "ATLANTA", "State": "GA", "Latitude": 33.66863, "Longitude": -84.4189, "Industry_T": "Minerals", "CO2_Emissi": 84710.9}}, {"type": "Feature", "id": "3550", "geometry": {"type": "Point", "coordinates": [-78.74431999999996, 41.24891000000008]}, "properties": {"Facility_N": "OWENS BROCKWAY GLASS CONTAINER INC. PLT 19", "City": "Brockport", "State": "PA", "Latitude": 41.24891, "Longitude": -78.74432, "Industry_T": "Minerals", "CO2_Emissi": 84856.6}}, {"type": "Feature", "id": "3553", "geometry": {"type": "Point", "coordinates": [-77.15579999999994, 42.110550000000046]}, "properties": {"Facility_N": "CORNING DIESEL MANUFACTURING FACILITY", "City": "PAINTED POST", "State": "NY", "Latitude": 42.11055, "Longitude": -77.1558, "Industry_T": "Minerals", "CO2_Emissi": 85005.6}}, {"type": "Feature", "id": "3572", "geometry": {"type": "Point", "coordinates": [-83.44829999999996, 43.74100000000004]}, "properties": {"Facility_N": "MICHIGAN SUGAR COMPANY - SEBEWAING FACTORY", "City": "SEBEWAING", "State": "MI", "Latitude": 43.741, "Longitude": -83.4483, "Industry_T": "Minerals", "CO2_Emissi": 86412.7}}, {"type": "Feature", "id": "3581", "geometry": {"type": "Point", "coordinates": [-105.11612999999994, 39.78741000000008]}, "properties": {"Facility_N": "ROCKY MOUNTAIN BOTTLE COMPANY", "City": "WHEAT RIDGE", "State": "CO", "Latitude": 39.78741, "Longitude": -105.11613, "Industry_T": "Minerals", "CO2_Emissi": 86932.5}}, {"type": "Feature", "id": "3586", "geometry": {"type": "Point", "coordinates": [-85.21573299999994, 32.83651900000007]}, "properties": {"Facility_N": "KNAUF INSULATION GmbH", "City": "LANETT", "State": "AL", "Latitude": 32.836519, "Longitude": -85.215733, "Industry_T": "Minerals", "CO2_Emissi": 87255.4}}, {"type": "Feature", "id": "3591", "geometry": {"type": "Point", "coordinates": [-77.88016999999996, 35.75387000000006]}, "properties": {"Facility_N": "Ardagh Glass Inc.", "City": "WILSON", "State": "NC", "Latitude": 35.75387, "Longitude": -77.88017, "Industry_T": "Minerals", "CO2_Emissi": 87414.9}}, {"type": "Feature", "id": "3592", "geometry": {"type": "Point", "coordinates": [-96.56277699999998, 32.766944000000024]}, "properties": {"Facility_N": "Dal-Tile Sunnyvale Mfg", "City": "SUNNYVALE", "State": "TX", "Latitude": 32.766944, "Longitude": -96.562777, "Industry_T": "Minerals", "CO2_Emissi": 87450.8}}, {"type": "Feature", "id": "3596", "geometry": {"type": "Point", "coordinates": [-94.61531499999995, 39.14201900000006]}, "properties": {"Facility_N": "CERTAINTEED CORP.", "City": "KANSAS CITY", "State": "KS", "Latitude": 39.142019, "Longitude": -94.615315, "Industry_T": "Minerals", "CO2_Emissi": 87667.9}}, {"type": "Feature", "id": "3608", "geometry": {"type": "Point", "coordinates": [-99.59472199999999, 34.65416700000003]}, "properties": {"Facility_N": "AMERICAN GYPSUM CO /GYPSUM WALLBOARD PLT", "City": "DUKE", "State": "OK", "Latitude": 34.654167, "Longitude": -99.594722, "Industry_T": "Minerals", "CO2_Emissi": 88391.2}}, {"type": "Feature", "id": "3615", "geometry": {"type": "Point", "coordinates": [-84.52076399999999, 35.368130000000065]}, "properties": {"Facility_N": "JOHNS MANVILLE", "City": "ETOWAH", "State": "TN", "Latitude": 35.36813, "Longitude": -84.520764, "Industry_T": "Minerals", "CO2_Emissi": 88735.9}}, {"type": "Feature", "id": "3616", "geometry": {"type": "Point", "coordinates": [-75.01767099999995, 39.38756500000005]}, "properties": {"Facility_N": "DURAND GLASS MANUFACTURING CO INC", "City": "MILLVILLE", "State": "NJ", "Latitude": 39.387565, "Longitude": -75.017671, "Industry_T": "Minerals", "CO2_Emissi": 88780.5}}, {"type": "Feature", "id": "3618", "geometry": {"type": "Point", "coordinates": [-121.49156999999997, 37.71514700000006]}, "properties": {"Facility_N": "OWENS-BROCKWAY GLASS CONTAINER INC.", "City": "TRACY", "State": "CA", "Latitude": 37.715147, "Longitude": -121.49157, "Industry_T": "Minerals", "CO2_Emissi": 88891.1}}, {"type": "Feature", "id": "3621", "geometry": {"type": "Point", "coordinates": [-86.28835999999995, 44.22714000000008]}, "properties": {"Facility_N": "MARTIN MARIETTA MAGNESIA SPECIALTIES, LLC", "City": "MANISTEE", "State": "MI", "Latitude": 44.22714, "Longitude": -86.28836, "Industry_T": "Minerals", "CO2_Emissi": 89252.9}}, {"type": "Feature", "id": "3648", "geometry": {"type": "Point", "coordinates": [-87.64892999999995, 36.38343000000003]}, "properties": {"Facility_N": "Georgia-Pacific Gypsum LLC - Cumberland", "City": "CUMBERLAND CITY", "State": "TN", "Latitude": 36.38343, "Longitude": -87.64893, "Industry_T": "Minerals", "CO2_Emissi": 90833.0}}, {"type": "Feature", "id": "3654", "geometry": {"type": "Point", "coordinates": [-81.64258299999995, 29.744193000000053]}, "properties": {"Facility_N": "Continental Palatka, LLC.", "City": "PALATKA", "State": "FL", "Latitude": 29.744193, "Longitude": -81.642583, "Industry_T": "Minerals", "CO2_Emissi": 91325.8}}, {"type": "Feature", "id": "3655", "geometry": {"type": "Point", "coordinates": [-82.61894999999998, 39.71923000000004]}, "properties": {"Facility_N": "ANCHOR HOCKING GLASS CO PLANT NO 1 *", "City": "LANCASTER", "State": "OH", "Latitude": 39.71923, "Longitude": -82.61895, "Industry_T": "Minerals", "CO2_Emissi": 91352.5}}, {"type": "Feature", "id": "3669", "geometry": {"type": "Point", "coordinates": [-81.62466999999998, 35.326730000000055]}, "properties": {"Facility_N": "PPG INDUSTRIES FIBER GLASS PRODUCTS INC", "City": "SHELBY", "State": "NC", "Latitude": 35.32673, "Longitude": -81.62467, "Industry_T": "Minerals", "CO2_Emissi": 92239.9}}, {"type": "Feature", "id": "3689", "geometry": {"type": "Point", "coordinates": [-84.97169399999996, 40.17369400000007]}, "properties": {"Facility_N": "Ardagh Glass Inc.", "City": "WINCHESTER", "State": "IN", "Latitude": 40.173694, "Longitude": -84.971694, "Industry_T": "Minerals", "CO2_Emissi": 93478.1}}, {"type": "Feature", "id": "3698", "geometry": {"type": "Point", "coordinates": [-108.49822999999998, 45.769810000000064]}, "properties": {"Facility_N": "WESTERN SUGAR COOPERATIVE", "City": "BILLINGS", "State": "MT", "Latitude": 45.76981, "Longitude": -108.49823, "Industry_T": "Minerals", "CO2_Emissi": 93992.8}}, {"type": "Feature", "id": "3721", "geometry": {"type": "Point", "coordinates": [-76.81071699999995, 42.121012000000064]}, "properties": {"Facility_N": "Anchor Glass Container - Plant 41", "City": "ELMIRA HEIGHTS", "State": "NY", "Latitude": 42.121012, "Longitude": -76.810717, "Industry_T": "Minerals", "CO2_Emissi": 94852.9}}, {"type": "Feature", "id": "3750", "geometry": {"type": "Point", "coordinates": [-95.96277799999996, 35.44777800000003]}, "properties": {"Facility_N": "Anchor Glass Container Corporation - Plant 15", "City": "HENRYETTA", "State": "OK", "Latitude": 35.447778, "Longitude": -95.962778, "Industry_T": "Minerals", "CO2_Emissi": 96939.4}}, {"type": "Feature", "id": "3768", "geometry": {"type": "Point", "coordinates": [-88.87856799999997, 41.32890400000008]}, "properties": {"Facility_N": "PILKINGTON N.A.", "City": "OTTAWA", "State": "IL", "Latitude": 41.328904, "Longitude": -88.878568, "Industry_T": "Minerals", "CO2_Emissi": 98670.9}}, {"type": "Feature", "id": "3784", "geometry": {"type": "Point", "coordinates": [-92.76687099999998, 32.54357200000004]}, "properties": {"Facility_N": "Ardagh Glass Inc.", "City": "SIMSBORO", "State": "LA", "Latitude": 32.543572, "Longitude": -92.766871, "Industry_T": "Minerals", "CO2_Emissi": 100701.5}}, {"type": "Feature", "id": "3797", "geometry": {"type": "Point", "coordinates": [-84.49393999999995, 30.73805500000003]}, "properties": {"Facility_N": "BASF CORP ATTAPULGUS OPS", "City": "ATTAPULGUS", "State": "GA", "Latitude": 30.738055, "Longitude": -84.49394, "Industry_T": "Minerals", "CO2_Emissi": 101701.3}}, {"type": "Feature", "id": "3801", "geometry": {"type": "Point", "coordinates": [-104.91552429999996, 40.48910310000008]}, "properties": {"Facility_N": "OWENS-BROCKWAY GLASS CONTAINER INC PLANT 28", "City": "Windsor", "State": "CO", "Latitude": 40.4891031, "Longitude": -104.9155243, "Industry_T": "Minerals", "CO2_Emissi": 101848.9}}, {"type": "Feature", "id": "3803", "geometry": {"type": "Point", "coordinates": [-80.78879899999998, 35.63255400000003]}, "properties": {"Facility_N": "CARDINAL FG FLAT GLASS PLANT", "City": "MOORESVILLE", "State": "NC", "Latitude": 35.632554, "Longitude": -80.788799, "Industry_T": "Minerals", "CO2_Emissi": 102060.8}}, {"type": "Feature", "id": "3851", "geometry": {"type": "Point", "coordinates": [-94.82525199999998, 38.75918800000005]}, "properties": {"Facility_N": "AGC FLAT GLASS NORTH AMERICA SPRING HILL PLANT", "City": "SPRING HILL", "State": "KS", "Latitude": 38.759188, "Longitude": -94.825252, "Industry_T": "Minerals", "CO2_Emissi": 106649.8}}, {"type": "Feature", "id": "3855", "geometry": {"type": "Point", "coordinates": [-91.87879999999996, 44.910340000000076]}, "properties": {"Facility_N": "CARDINAL FG", "City": "MENOMONIE", "State": "WI", "Latitude": 44.91034, "Longitude": -91.8788, "Industry_T": "Minerals", "CO2_Emissi": 107035.2}}, {"type": "Feature", "id": "3856", "geometry": {"type": "Point", "coordinates": [-89.49911999999995, 43.55865000000006]}, "properties": {"Facility_N": "CARDINAL FG", "City": "PORTAGE", "State": "WI", "Latitude": 43.55865, "Longitude": -89.49912, "Industry_T": "Minerals", "CO2_Emissi": 107167.8}}, {"type": "Feature", "id": "3859", "geometry": {"type": "Point", "coordinates": [-83.59178399999996, 32.586745000000064]}, "properties": {"Facility_N": "Anchor Glass Container Corporation - Plant 14", "City": "WARNER ROBINS", "State": "GA", "Latitude": 32.586745, "Longitude": -83.591784, "Industry_T": "Minerals", "CO2_Emissi": 107490.3}}, {"type": "Feature", "id": "3860", "geometry": {"type": "Point", "coordinates": [-122.926313, 46.54493700000006]}, "properties": {"Facility_N": "Cardinal FG Company", "City": "Winlock", "State": "WA", "Latitude": 46.544937, "Longitude": -122.926313, "Industry_T": "Minerals", "CO2_Emissi": 107497.0}}, {"type": "Feature", "id": "3861", "geometry": {"type": "Point", "coordinates": [-86.87812999999994, 36.183640000000025]}, "properties": {"Facility_N": "Carlex Glass America, LLC", "City": "Nashville", "State": "TN", "Latitude": 36.18364, "Longitude": -86.87813, "Industry_T": "Minerals", "CO2_Emissi": 107537.7}}, {"type": "Feature", "id": "3899", "geometry": {"type": "Point", "coordinates": [-96.43171399999994, 32.065225000000055]}, "properties": {"Facility_N": "GUARDIAN INDUSTRIES", "City": "CORSICANA", "State": "TX", "Latitude": 32.065225, "Longitude": -96.431714, "Industry_T": "Minerals", "CO2_Emissi": 112118.1}}, {"type": "Feature", "id": "3917", "geometry": {"type": "Point", "coordinates": [-85.19813399999998, 40.371053000000074]}, "properties": {"Facility_N": "Ardagh Glass Inc.", "City": "DUNKIRK", "State": "IN", "Latitude": 40.371053, "Longitude": -85.198134, "Industry_T": "Minerals", "CO2_Emissi": 114448.9}}, {"type": "Feature", "id": "3919", "geometry": {"type": "Point", "coordinates": [-90.52443999999997, 41.813330000000065]}, "properties": {"Facility_N": "GUARDIAN INDUSTRIES", "City": "DEWITT", "State": "IA", "Latitude": 41.81333, "Longitude": -90.52444, "Industry_T": "Minerals", "CO2_Emissi": 114688.2}}, {"type": "Feature", "id": "3937", "geometry": {"type": "Point", "coordinates": [-97.17030199999994, 31.510091000000045]}, "properties": {"Facility_N": "OWENS-BROCKWAY GLASS CONTAINER INC. PLANT #15", "City": "WACO", "State": "TX", "Latitude": 31.510091, "Longitude": -97.170302, "Industry_T": "Minerals", "CO2_Emissi": 117317.6}}, {"type": "Feature", "id": "3946", "geometry": {"type": "Point", "coordinates": [-96.45340999999996, 34.000710000000026]}, "properties": {"Facility_N": "CARDINAL GLASS PLT", "City": "DURANT", "State": "OK", "Latitude": 34.00071, "Longitude": -96.45341, "Industry_T": "Minerals", "CO2_Emissi": 118823.3}}, {"type": "Feature", "id": "3954", "geometry": {"type": "Point", "coordinates": [-114.88983799999994, 36.22169500000007]}, "properties": {"Facility_N": "PABCO BUILDING PRODUCTS AND SANDIA", "City": "North LAS VEGAS", "State": "NV", "Latitude": 36.221695, "Longitude": -114.889838, "Industry_T": "Minerals", "CO2_Emissi": 120286.7}}, {"type": "Feature", "id": "3960", "geometry": {"type": "Point", "coordinates": [-73.11349999999999, 42.643200000000036]}, "properties": {"Facility_N": "SPECIALTY MINERALS", "City": "ADAMS", "State": "MA", "Latitude": 42.6432, "Longitude": -73.1135, "Industry_T": "Minerals", "CO2_Emissi": 121171.2}}, {"type": "Feature", "id": "3963", "geometry": {"type": "Point", "coordinates": [-119.58161999999999, 36.54681000000005]}, "properties": {"Facility_N": "GUARDIAN INDUSTRIES CORP - KINGSBURG", "City": "KINGSBURG", "State": "CA", "Latitude": 36.54681, "Longitude": -119.58162, "Industry_T": "Minerals", "CO2_Emissi": 121281.6}}, {"type": "Feature", "id": "3970", "geometry": {"type": "Point", "coordinates": [-96.09923299999997, 36.00992400000007]}, "properties": {"Facility_N": "Ardagh Glass Inc.", "City": "SAPULPA", "State": "OK", "Latitude": 36.009924, "Longitude": -96.099233, "Industry_T": "Minerals", "CO2_Emissi": 122182.9}}, {"type": "Feature", "id": "3996", "geometry": {"type": "Point", "coordinates": [-87.70027999999996, 44.16799000000003]}, "properties": {"Facility_N": "CARMEUSE LIME & STONE ROCKWELL OPERATION", "City": "MANITOWOC", "State": "WI", "Latitude": 44.16799, "Longitude": -87.70028, "Industry_T": "Minerals", "CO2_Emissi": 126024.3}}, {"type": "Feature", "id": "3999", "geometry": {"type": "Point", "coordinates": [-97.24077299999999, 31.48198700000006]}, "properties": {"Facility_N": "LEHIGH CEMENT CO LLC / WACO PLANT", "City": "WOODWAY", "State": "TX", "Latitude": 31.481987, "Longitude": -97.240773, "Industry_T": "Minerals", "CO2_Emissi": 126649.1}}, {"type": "Feature", "id": "4014", "geometry": {"type": "Point", "coordinates": [-81.00081199999994, 34.70603500000004]}, "properties": {"Facility_N": "GUARDIAN INDUSTRIES CORP - RICHBURG", "City": "RICHBURG", "State": "SC", "Latitude": 34.706035, "Longitude": -81.000812, "Industry_T": "Minerals", "CO2_Emissi": 128722.6}}, {"type": "Feature", "id": "4018", "geometry": {"type": "Point", "coordinates": [-66.10572399999995, 18.466224000000068]}, "properties": {"Facility_N": "Essroc San Juan", "City": "Dorado", "State": "PR", "Latitude": 18.466224, "Longitude": -66.105724, "Industry_T": "Minerals", "CO2_Emissi": 129207.9}}, {"type": "Feature", "id": "4024", "geometry": {"type": "Point", "coordinates": [-82.77945999999997, 36.49700000000007]}, "properties": {"Facility_N": "AGC-GREENLAND FLATGLASS PLANT", "City": "CHURCH HILL", "State": "TN", "Latitude": 36.497, "Longitude": -82.77946, "Industry_T": "Minerals", "CO2_Emissi": 130114.0}}, {"type": "Feature", "id": "4075", "geometry": {"type": "Point", "coordinates": [-84.39018999999996, 39.03672000000006]}, "properties": {"Facility_N": "Continental Silver Grove, LLC.", "City": "SILVER GROVE", "State": "KY", "Latitude": 39.03672, "Longitude": -84.39019, "Industry_T": "Minerals", "CO2_Emissi": 138146.6}}, {"type": "Feature", "id": "4083", "geometry": {"type": "Point", "coordinates": [-76.97222999999997, 42.88261000000006]}, "properties": {"Facility_N": "GUARDIAN INDUSTRIES CORP", "City": "GENEVA", "State": "NY", "Latitude": 42.88261, "Longitude": -76.97223, "Industry_T": "Minerals", "CO2_Emissi": 140028.2}}, {"type": "Feature", "id": "4098", "geometry": {"type": "Point", "coordinates": [-78.08479999999997, 39.25669000000005]}, "properties": {"Facility_N": "O-N MINERALS CHEMSTONE COMPANY", "City": "CLEAR BROOK", "State": "VA", "Latitude": 39.25669, "Longitude": -78.0848, "Industry_T": "Minerals", "CO2_Emissi": 143164.5}}, {"type": "Feature", "id": "4100", "geometry": {"type": "Point", "coordinates": [-88.90447499999999, 39.77943700000003]}, "properties": {"Facility_N": "Fuyao Glass Illinois Inc.", "City": "Decatur", "State": "IL", "Latitude": 39.779437, "Longitude": -88.904475, "Industry_T": "Minerals", "CO2_Emissi": 143265.6}}, {"type": "Feature", "id": "4112", "geometry": {"type": "Point", "coordinates": [-80.32969999999995, 35.507670000000076]}, "properties": {"Facility_N": "CAROLINA STALITE COMPANY", "City": "GOLD HILL", "State": "NC", "Latitude": 35.50767, "Longitude": -80.3297, "Industry_T": "Minerals", "CO2_Emissi": 144680.3}}, {"type": "Feature", "id": "4148", "geometry": {"type": "Point", "coordinates": [-88.01260999999994, 44.524380000000065]}, "properties": {"Facility_N": "Graymont Western Lime GREEN BAY", "City": "GREEN BAY", "State": "WI", "Latitude": 44.52438, "Longitude": -88.01261, "Industry_T": "Minerals", "CO2_Emissi": 150606.0}}, {"type": "Feature", "id": "4150", "geometry": {"type": "Point", "coordinates": [-86.82069399999995, 33.24410400000005]}, "properties": {"Facility_N": "LHOIST NORTH AMERICA OF ALABAMA-ALABASTER PLANT", "City": "ALABASTER", "State": "AL", "Latitude": 33.244104, "Longitude": -86.820694, "Industry_T": "Minerals", "CO2_Emissi": 151021.0}}, {"type": "Feature", "id": "4155", "geometry": {"type": "Point", "coordinates": [-83.36203999999998, 42.089860000000044]}, "properties": {"Facility_N": "GUARDIAN INDUSTRIES CORPORATION CARLETON FACILITY", "City": "CARLETON", "State": "MI", "Latitude": 42.08986, "Longitude": -83.36204, "Industry_T": "Minerals", "CO2_Emissi": 151531.5}}, {"type": "Feature", "id": "4159", "geometry": {"type": "Point", "coordinates": [-120.97471999999999, 37.63095700000008]}, "properties": {"Facility_N": "GALLO GLASS COMPANY", "City": "MODESTO", "State": "CA", "Latitude": 37.630957, "Longitude": -120.97472, "Industry_T": "Minerals", "CO2_Emissi": 151760.1}}, {"type": "Feature", "id": "4174", "geometry": {"type": "Point", "coordinates": [-83.91587999999996, 43.57486000000006]}, "properties": {"Facility_N": "MICHIGAN SUGAR COMPANY - Bay City", "City": "BAY CITY", "State": "MI", "Latitude": 43.57486, "Longitude": -83.91588, "Industry_T": "Minerals", "CO2_Emissi": 155659.3}}, {"type": "Feature", "id": "4190", "geometry": {"type": "Point", "coordinates": [-83.55523699999998, 41.61762600000003]}, "properties": {"Facility_N": "Pilkington North America, Inc.", "City": "ROSSFORD", "State": "OH", "Latitude": 41.617626, "Longitude": -83.555237, "Industry_T": "Minerals", "CO2_Emissi": 159892.5}}, {"type": "Feature", "id": "4203", "geometry": {"type": "Point", "coordinates": [-103.80992899999995, 40.261221000000035]}, "properties": {"Facility_N": "WESTERN SUGAR COOP", "City": "FORT MORGAN", "State": "CO", "Latitude": 40.261221, "Longitude": -103.809929, "Industry_T": "Minerals", "CO2_Emissi": 163459.1}}, {"type": "Feature", "id": "4224", "geometry": {"type": "Point", "coordinates": [-98.25359999999995, 30.64790000000005]}, "properties": {"Facility_N": "LHOIST NORTH AMERICA - MARBLE FALLS PLANT", "City": "BURNET", "State": "TX", "Latitude": 30.6479, "Longitude": -98.2536, "Industry_T": "Minerals", "CO2_Emissi": 167823.8}}, {"type": "Feature", "id": "4233", "geometry": {"type": "Point", "coordinates": [-84.26928999999996, 37.70034000000004]}, "properties": {"Facility_N": "AGC FLAT GLASS N AMERICA INC", "City": "RICHMOND", "State": "KY", "Latitude": 37.70034, "Longitude": -84.26929, "Industry_T": "Minerals", "CO2_Emissi": 169114.0}}, {"type": "Feature", "id": "4252", "geometry": {"type": "Point", "coordinates": [-80.19788399999999, 41.523577000000046]}, "properties": {"Facility_N": "PITTSBURGH GLASS WORKS/MEADVILLE WORKS 8", "City": "Cochranton", "State": "PA", "Latitude": 41.523577, "Longitude": -80.197884, "Industry_T": "Minerals", "CO2_Emissi": 171821.1}}, {"type": "Feature", "id": "4261", "geometry": {"type": "Point", "coordinates": [-108.62499999999994, 44.996200000000044]}, "properties": {"Facility_N": "WYOMING LIME PRODUCERS", "City": "FRANNIE", "State": "WY", "Latitude": 44.9962, "Longitude": -108.625, "Industry_T": "Minerals", "CO2_Emissi": 173859.0}}, {"type": "Feature", "id": "4266", "geometry": {"type": "Point", "coordinates": [-84.33237099999997, 31.952913000000024]}, "properties": {"Facility_N": "C-E MINERALS PLANTS 1/2/6", "City": "ANDERSONVILLE", "State": "GA", "Latitude": 31.952913, "Longitude": -84.332371, "Industry_T": "Minerals", "CO2_Emissi": 174382.5}}, {"type": "Feature", "id": "4332", "geometry": {"type": "Point", "coordinates": [-122.32229999999998, 40.73690000000005]}, "properties": {"Facility_N": "LEHIGH SOUTHWEST CEMENT CO.", "City": "REDDING", "State": "CA", "Latitude": 40.7369, "Longitude": -122.3223, "Industry_T": "Minerals", "CO2_Emissi": 191909.8}}, {"type": "Feature", "id": "4358", "geometry": {"type": "Point", "coordinates": [-79.70016999999996, 40.794800000000066]}, "properties": {"Facility_N": "ARMSTRONG CEMENT & SUPPLY", "City": "CABOT", "State": "PA", "Latitude": 40.7948, "Longitude": -79.70017, "Industry_T": "Minerals", "CO2_Emissi": 197681.4}}, {"type": "Feature", "id": "4362", "geometry": {"type": "Point", "coordinates": [-98.55335799999995, 33.99642800000004]}, "properties": {"Facility_N": "Vitro Flat Glass LLC", "City": "Wichita Falls", "State": "TX", "Latitude": 33.996428, "Longitude": -98.553358, "Industry_T": "Minerals", "CO2_Emissi": 198477.0}}, {"type": "Feature", "id": "4372", "geometry": {"type": "Point", "coordinates": [-76.54072199999996, 40.32430400000004]}, "properties": {"Facility_N": "CARMEUSE LIME INC/MILLARD LIME PLT", "City": "ANNVILLE", "State": "PA", "Latitude": 40.324304, "Longitude": -76.540722, "Industry_T": "Minerals", "CO2_Emissi": 201263.8}}, {"type": "Feature", "id": "4385", "geometry": {"type": "Point", "coordinates": [-83.35027999999994, 41.50945000000007]}, "properties": {"Facility_N": "GRAYMONT DOLIME OH INC *", "City": "GENOA", "State": "OH", "Latitude": 41.50945, "Longitude": -83.35028, "Industry_T": "Minerals", "CO2_Emissi": 204934.5}}, {"type": "Feature", "id": "4402", "geometry": {"type": "Point", "coordinates": [-97.00611099999998, 47.92583300000007]}, "properties": {"Facility_N": "AMERICAN CRYSTAL SUGAR - E GRAND FORKS", "City": "EAST GRAND FORKS", "State": "MN", "Latitude": 47.925833, "Longitude": -97.006111, "Industry_T": "Minerals,Waste", "CO2_Emissi": 211402.7}}, {"type": "Feature", "id": "4410", "geometry": {"type": "Point", "coordinates": [-97.72090999999995, 30.45407000000006]}, "properties": {"Facility_N": "AUSTIN WHITE LIME COMPANY MCNEIL PLANT & QUARRY", "City": "AUSTIN", "State": "TX", "Latitude": 30.45407, "Longitude": -97.72091, "Industry_T": "Minerals", "CO2_Emissi": 212661.5}}, {"type": "Feature", "id": "4423", "geometry": {"type": "Point", "coordinates": [-78.33299999999997, 39.02401000000003]}, "properties": {"Facility_N": "CARMEUSE LIME AND STONE", "City": "STRASBURG", "State": "VA", "Latitude": 39.02401, "Longitude": -78.333, "Industry_T": "Minerals", "CO2_Emissi": 216513.1}}, {"type": "Feature", "id": "4435", "geometry": {"type": "Point", "coordinates": [-77.16725999999994, 40.12921000000006]}, "properties": {"Facility_N": "Vitro Flat Glass LLC", "City": "Carlisle", "State": "PA", "Latitude": 40.12921, "Longitude": -77.16726, "Industry_T": "Minerals", "CO2_Emissi": 220424.7}}, {"type": "Feature", "id": "4437", "geometry": {"type": "Point", "coordinates": [-83.71535999999998, 36.22911000000005]}, "properties": {"Facility_N": "O-N MINERALS (LUTTRELL) CO.", "City": "LUTTRELL", "State": "TN", "Latitude": 36.22911, "Longitude": -83.71536, "Industry_T": "Minerals", "CO2_Emissi": 221041.4}}, {"type": "Feature", "id": "4453", "geometry": {"type": "Point", "coordinates": [-116.57499999999999, 43.60430000000008]}, "properties": {"Facility_N": "AMALGAMATED SUGAR CO LLC", "City": "NAMPA", "State": "ID", "Latitude": 43.6043, "Longitude": -116.575, "Industry_T": "Minerals,Waste", "CO2_Emissi": 227094.5}}, {"type": "Feature", "id": "4456", "geometry": {"type": "Point", "coordinates": [-94.81917999999996, 35.58160000000004]}, "properties": {"Facility_N": "US LIME COMPANY-ST. CLAIR", "City": "MARBLE CITY", "State": "OK", "Latitude": 35.5816, "Longitude": -94.81918, "Industry_T": "Minerals", "CO2_Emissi": 228843.0}}, {"type": "Feature", "id": "4475", "geometry": {"type": "Point", "coordinates": [-96.75972199999995, 46.90305600000005]}, "properties": {"Facility_N": "AMERICAN CRYSTAL SUGAR - MOORHEAD", "City": "MOORHEAD", "State": "MN", "Latitude": 46.903056, "Longitude": -96.759722, "Industry_T": "Minerals,Waste", "CO2_Emissi": 234048.2}}, {"type": "Feature", "id": "4489", "geometry": {"type": "Point", "coordinates": [-77.68049999999994, 39.65240000000006]}, "properties": {"Facility_N": "Holcim (US), Inc.", "City": "Hagerstown", "State": "MD", "Latitude": 39.6524, "Longitude": -77.6805, "Industry_T": "Minerals", "CO2_Emissi": 238131.7}}, {"type": "Feature", "id": "4497", "geometry": {"type": "Point", "coordinates": [-89.45479999999998, 41.86100000000005]}, "properties": {"Facility_N": "ST MARYS CEMENT INC-DIXON PLANT", "City": "DIXON", "State": "IL", "Latitude": 41.861, "Longitude": -89.4548, "Industry_T": "Minerals", "CO2_Emissi": 244789.3}}, {"type": "Feature", "id": "4499", "geometry": {"type": "Point", "coordinates": [-79.39494499999995, 34.74942000000004]}, "properties": {"Facility_N": "PILKINGTON NORTH AMERICA, INC.", "City": "LAURINBURG", "State": "NC", "Latitude": 34.74942, "Longitude": -79.394945, "Industry_T": "Minerals", "CO2_Emissi": 245773.8}}, {"type": "Feature", "id": "4512", "geometry": {"type": "Point", "coordinates": [-113.75742299999996, 42.61167100000006]}, "properties": {"Facility_N": "AMALGAMATED SUGAR CO LLC", "City": "PAUL", "State": "ID", "Latitude": 42.611671, "Longitude": -113.757423, "Industry_T": "Minerals,Waste", "CO2_Emissi": 249766.5}}, {"type": "Feature", "id": "4517", "geometry": {"type": "Point", "coordinates": [-105.23669699999999, 40.20223600000003]}, "properties": {"Facility_N": "CEMEX CONSTRUCTION MATERIALS SOUTH LLC", "City": "LYONS", "State": "CO", "Latitude": 40.202236, "Longitude": -105.236697, "Industry_T": "Minerals", "CO2_Emissi": 252138.8}}, {"type": "Feature", "id": "4518", "geometry": {"type": "Point", "coordinates": [-96.63249999999994, 47.764444000000026]}, "properties": {"Facility_N": "AMERICAN CRYSTAL SUGAR - CROOKSTON", "City": "CROOKSTON", "State": "MN", "Latitude": 47.764444, "Longitude": -96.6325, "Industry_T": "Minerals,Waste", "CO2_Emissi": 252148.6}}, {"type": "Feature", "id": "4528", "geometry": {"type": "Point", "coordinates": [-102.54666099999997, 31.74583300000006]}, "properties": {"Facility_N": "GCC Permian, LLC", "City": "ODESSA", "State": "TX", "Latitude": 31.745833, "Longitude": -102.546661, "Industry_T": "Minerals", "CO2_Emissi": 256655.3}}, {"type": "Feature", "id": "4529", "geometry": {"type": "Point", "coordinates": [-85.98393899999996, 45.96910900000006]}, "properties": {"Facility_N": "Port Inland Plant", "City": "Gulliver", "State": "MI", "Latitude": 45.969109, "Longitude": -85.983939, "Industry_T": "Minerals", "CO2_Emissi": 256814.7}}, {"type": "Feature", "id": "4548", "geometry": {"type": "Point", "coordinates": [-114.43736999999999, 42.53382000000005]}, "properties": {"Facility_N": "AMALGAMATED SUGAR CO LLC", "City": "TWIN FALLS", "State": "ID", "Latitude": 42.53382, "Longitude": -114.43737, "Industry_T": "Minerals", "CO2_Emissi": 266945.8}}, {"type": "Feature", "id": "4568", "geometry": {"type": "Point", "coordinates": [-86.43344099999996, 40.73452100000003]}, "properties": {"Facility_N": "ESSROC MATERIALS INC", "City": "LOGANSPORT", "State": "IN", "Latitude": 40.734521, "Longitude": -86.433441, "Industry_T": "Minerals", "CO2_Emissi": 278079.1}}, {"type": "Feature", "id": "4570", "geometry": {"type": "Point", "coordinates": [-66.63887999999997, 18.02305000000007]}, "properties": {"Facility_N": "CEMEX de Puerto Rico, Inc.", "City": "Ponce", "State": "PR", "Latitude": 18.02305, "Longitude": -66.63888, "Industry_T": "Minerals", "CO2_Emissi": 280090.3}}, {"type": "Feature", "id": "4573", "geometry": {"type": "Point", "coordinates": [-81.28280999999998, 41.750170000000026]}, "properties": {"Facility_N": "CARMEUSE LIME, INC.  GRAND RIVER OPERATIONS (0243030257)", "City": "GRAND RIVER", "State": "OH", "Latitude": 41.75017, "Longitude": -81.28281, "Industry_T": "Minerals", "CO2_Emissi": 281539.5}}, {"type": "Feature", "id": "4597", "geometry": {"type": "Point", "coordinates": [-75.50630499999994, 40.68764600000003]}, "properties": {"Facility_N": "LAFARGE NA WHITEHALL PLANT", "City": "WHITEHALL", "State": "PA", "Latitude": 40.687646, "Longitude": -75.506305, "Industry_T": "Minerals", "CO2_Emissi": 292487.9}}, {"type": "Feature", "id": "4601", "geometry": {"type": "Point", "coordinates": [-97.17499999999995, 48.59166700000003]}, "properties": {"Facility_N": "American Crystal Sugar Company - Drayton", "City": "Drayton", "State": "ND", "Latitude": 48.591667, "Longitude": -97.175, "Industry_T": "Minerals,Waste", "CO2_Emissi": 296449.1}}, {"type": "Feature", "id": "4602", "geometry": {"type": "Point", "coordinates": [-73.81365199999993, 42.49756000000008]}, "properties": {"Facility_N": "LAFARGE BUILDING MATERIALS INC", "City": "RAVENA", "State": "NY", "Latitude": 42.49756, "Longitude": -73.813652, "Industry_T": "Minerals", "CO2_Emissi": 296922.9}}, {"type": "Feature", "id": "4604", "geometry": {"type": "Point", "coordinates": [-103.28114199999999, 44.11634300000003]}, "properties": {"Facility_N": "PETE LIEN & SONS, INC.", "City": "RAPID CITY", "State": "SD", "Latitude": 44.116343, "Longitude": -103.281142, "Industry_T": "Minerals", "CO2_Emissi": 297904.2}}, {"type": "Feature", "id": "4607", "geometry": {"type": "Point", "coordinates": [-111.47707599999995, 45.944769000000065]}, "properties": {"Facility_N": "Trident", "City": "THREE FORKS", "State": "MT", "Latitude": 45.944769, "Longitude": -111.477076, "Industry_T": "Minerals", "CO2_Emissi": 300077.4}}, {"type": "Feature", "id": "4617", "geometry": {"type": "Point", "coordinates": [-88.38491199999999, 43.704601000000025]}, "properties": {"Facility_N": "Graymont WESTERN LIME EDEN", "City": "EDEN", "State": "WI", "Latitude": 43.704601, "Longitude": -88.384912, "Industry_T": "Minerals", "CO2_Emissi": 303172.4}}, {"type": "Feature", "id": "4631", "geometry": {"type": "Point", "coordinates": [-111.92061999999999, 46.54448000000008]}, "properties": {"Facility_N": "ASH GROVE CEMENT COMPANY-MONTANA CITY", "City": "CLANCY", "State": "MT", "Latitude": 46.54448, "Longitude": -111.92062, "Industry_T": "Minerals", "CO2_Emissi": 308485.9}}, {"type": "Feature", "id": "4633", "geometry": {"type": "Point", "coordinates": [-90.68496999999996, 41.463520000000074]}, "properties": {"Facility_N": "LINWOOD MINING & MINERALS CORPORATION", "City": "DAVENPORT", "State": "IA", "Latitude": 41.46352, "Longitude": -90.68497, "Industry_T": "Minerals", "CO2_Emissi": 309499.9}}, {"type": "Feature", "id": "4637", "geometry": {"type": "Point", "coordinates": [-82.54769999999996, 41.39630000000005]}, "properties": {"Facility_N": "MISSISSIPPI LIME CO - HURON PLANT", "City": "HURON", "State": "OH", "Latitude": 41.3963, "Longitude": -82.5477, "Industry_T": "Minerals", "CO2_Emissi": 312884.0}}, {"type": "Feature", "id": "4646", "geometry": {"type": "Point", "coordinates": [-111.61740999999995, 46.32847000000004]}, "properties": {"Facility_N": "GRAYMONT WESTERN U.S. INC. INDIAN CREEK", "City": "TOWNSEND", "State": "MT", "Latitude": 46.32847, "Longitude": -111.61741, "Industry_T": "Minerals", "CO2_Emissi": 317788.6}}, {"type": "Feature", "id": "4655", "geometry": {"type": "Point", "coordinates": [-73.62079999999997, 43.30640000000005]}, "properties": {"Facility_N": "Lehigh Northeast Cement Company", "City": "GLENS FALLS", "State": "NY", "Latitude": 43.3064, "Longitude": -73.6208, "Industry_T": "Minerals", "CO2_Emissi": 323503.9}}, {"type": "Feature", "id": "4657", "geometry": {"type": "Point", "coordinates": [-100.45833299999998, 32.25000000000006]}, "properties": {"Facility_N": "Lone Star Industries, Inc. /dba/ BUZZI UNICEM USA", "City": "MARYNEAL", "State": "TX", "Latitude": 32.25, "Longitude": -100.458333, "Industry_T": "Minerals", "CO2_Emissi": 323819.1}}, {"type": "Feature", "id": "4661", "geometry": {"type": "Point", "coordinates": [-84.75880399999994, 38.827901000000054]}, "properties": {"Facility_N": "MISSISSIPPI LIME CO - VERONA PLANT", "City": "VERONA", "State": "KY", "Latitude": 38.827901, "Longitude": -84.758804, "Industry_T": "Minerals", "CO2_Emissi": 325669.8}}, {"type": "Feature", "id": "4696", "geometry": {"type": "Point", "coordinates": [-97.06249999999994, 47.43583300000006]}, "properties": {"Facility_N": "AMERICAN CRYSTAL SUGAR - HILLSBORO", "City": "HILLSBORO", "State": "ND", "Latitude": 47.435833, "Longitude": -97.0625, "Industry_T": "Minerals,Waste", "CO2_Emissi": 344482.0}}, {"type": "Feature", "id": "4708", "geometry": {"type": "Point", "coordinates": [-79.48163799999998, 38.79374500000006]}, "properties": {"Facility_N": "Riverton Facility", "City": "RIVERTON", "State": "WV", "Latitude": 38.793745, "Longitude": -79.481638, "Industry_T": "Minerals", "CO2_Emissi": 351291.8}}, {"type": "Feature", "id": "4710", "geometry": {"type": "Point", "coordinates": [-96.61591999999996, 46.32353900000004]}, "properties": {"Facility_N": "MINN DAK FARMERS COOPERATIVE", "City": "WAHPETON", "State": "ND", "Latitude": 46.323539, "Longitude": -96.61592, "Industry_T": "Minerals,Waste", "CO2_Emissi": 352182.8}}, {"type": "Feature", "id": "4719", "geometry": {"type": "Point", "coordinates": [-80.44222199999996, 33.242778000000044]}, "properties": {"Facility_N": "GIANT CEMENT COMPANY", "City": "HARLEYVILLE", "State": "SC", "Latitude": 33.242778, "Longitude": -80.442222, "Industry_T": "Minerals", "CO2_Emissi": 357889.9}}, {"type": "Feature", "id": "4729", "geometry": {"type": "Point", "coordinates": [-76.82364199999995, 39.93526500000007]}, "properties": {"Facility_N": "MAGNESITA REFRACTORIES/YORK", "City": "YORK", "State": "PA", "Latitude": 39.935265, "Longitude": -76.823642, "Industry_T": "Minerals", "CO2_Emissi": 363925.8}}, {"type": "Feature", "id": "4733", "geometry": {"type": "Point", "coordinates": [-69.15723799999995, 44.084010000000035]}, "properties": {"Facility_N": "DRAGON CEMENT", "City": "THOMASTON", "State": "ME", "Latitude": 44.08401, "Longitude": -69.157238, "Industry_T": "Minerals", "CO2_Emissi": 366967.4}}, {"type": "Feature", "id": "4752", "geometry": {"type": "Point", "coordinates": [-122.34254999999996, 47.567990000000066]}, "properties": {"Facility_N": "ASH GROVE CEMENT COMPANY-SEATTLE", "City": "SEATTLE", "State": "WA", "Latitude": 47.56799, "Longitude": -122.34255, "Industry_T": "Minerals", "CO2_Emissi": 383432.0}}, {"type": "Feature", "id": "4774", "geometry": {"type": "Point", "coordinates": [-83.12799999999999, 42.27740000000006]}, "properties": {"Facility_N": "CARMEUSE LIME INC - River Rouge", "City": "RIVER ROUGE", "State": "MI", "Latitude": 42.2774, "Longitude": -83.128, "Industry_T": "Minerals", "CO2_Emissi": 398851.8}}, {"type": "Feature", "id": "4777", "geometry": {"type": "Point", "coordinates": [-98.18194399999999, 29.681944000000044]}, "properties": {"Facility_N": "Lhoist North America New Braunfels Plant", "City": "NEW BRAUNFELS", "State": "TX", "Latitude": 29.681944, "Longitude": -98.181944, "Industry_T": "Minerals", "CO2_Emissi": 400318.4}}, {"type": "Feature", "id": "4781", "geometry": {"type": "Point", "coordinates": [-95.17196999999999, 44.79747900000007]}, "properties": {"Facility_N": "SOUTHERN MINNESOTA BEET SUGAR COOPERATIVE", "City": "RENVILLE", "State": "MN", "Latitude": 44.797479, "Longitude": -95.17197, "Industry_T": "Minerals", "CO2_Emissi": 402925.0}}, {"type": "Feature", "id": "4792", "geometry": {"type": "Point", "coordinates": [-112.37629099999998, 34.981100000000026]}, "properties": {"Facility_N": "Drake Cement", "City": "Paulden", "State": "AZ", "Latitude": 34.9811, "Longitude": -112.376291, "Industry_T": "Minerals", "CO2_Emissi": 413150.0}}, {"type": "Feature", "id": "4796", "geometry": {"type": "Point", "coordinates": [-84.60479999999995, 41.180900000000065]}, "properties": {"Facility_N": "LAFARGE NA (INCLUDING SYSTECH ENV CORP)", "City": "PAULDING", "State": "OH", "Latitude": 41.1809, "Longitude": -84.6048, "Industry_T": "Minerals", "CO2_Emissi": 416909.9}}, {"type": "Feature", "id": "4802", "geometry": {"type": "Point", "coordinates": [-91.71891799999997, 35.794009000000074]}, "properties": {"Facility_N": "ARKANSAS LIME COMPANY", "City": "BATESVILLE", "State": "AR", "Latitude": 35.794009, "Longitude": -91.718918, "Industry_T": "Minerals", "CO2_Emissi": 419744.9}}, {"type": "Feature", "id": "4808", "geometry": {"type": "Point", "coordinates": [-112.08017999999998, 34.776260000000036]}, "properties": {"Facility_N": "PHOENIX CEMENT COMPANY\\S CLARKDALE FACILITY", "City": "CLARKDALE", "State": "AZ", "Latitude": 34.77626, "Longitude": -112.08018, "Industry_T": "Minerals", "CO2_Emissi": 423943.7}}, {"type": "Feature", "id": "4810", "geometry": {"type": "Point", "coordinates": [-97.55082799999997, 32.24638900000008]}, "properties": {"Facility_N": "Texas Lime Company", "City": "Cleburne", "State": "TX", "Latitude": 32.246389, "Longitude": -97.550828, "Industry_T": "Minerals", "CO2_Emissi": 426512.4}}, {"type": "Feature", "id": "4812", "geometry": {"type": "Point", "coordinates": [-85.74936099999996, 38.41572200000007]}, "properties": {"Facility_N": "ESSROC MATERIALS INC", "City": "SPEED", "State": "IN", "Latitude": 38.415722, "Longitude": -85.749361, "Industry_T": "Minerals", "CO2_Emissi": 432609.9}}, {"type": "Feature", "id": "4816", "geometry": {"type": "Point", "coordinates": [-95.22253899999998, 36.27183800000006]}, "properties": {"Facility_N": "LONE STAR IND INC DBA BUZZI UNICEM USA PRYOR CEMENT PLANT", "City": "PRYOR", "State": "OK", "Latitude": 36.271838, "Longitude": -95.222539, "Industry_T": "Minerals", "CO2_Emissi": 435956.5}}, {"type": "Feature", "id": "4823", "geometry": {"type": "Point", "coordinates": [-86.79885899999994, 33.10383400000006]}, "properties": {"Facility_N": "UNIMIN LIME LLC dba Southern Lime", "City": "CALERA", "State": "AL", "Latitude": 33.103834, "Longitude": -86.798859, "Industry_T": "Minerals", "CO2_Emissi": 442515.8}}, {"type": "Feature", "id": "4824", "geometry": {"type": "Point", "coordinates": [-93.20579999999995, 43.173100000000034]}, "properties": {"Facility_N": "LEHIGH CEMENT CO LLC", "City": "MASON CITY", "State": "IA", "Latitude": 43.1731, "Longitude": -93.2058, "Industry_T": "Minerals", "CO2_Emissi": 442573.8}}, {"type": "Feature", "id": "4836", "geometry": {"type": "Point", "coordinates": [-97.55202499999996, 31.731089000000054]}, "properties": {"Facility_N": "Lhoist North America /Clifton Plant", "City": "CLIFTON", "State": "TX", "Latitude": 31.731089, "Longitude": -97.552025, "Industry_T": "Minerals", "CO2_Emissi": 448571.1}}, {"type": "Feature", "id": "4845", "geometry": {"type": "Point", "coordinates": [-119.26279999999997, 39.62000000000006]}, "properties": {"Facility_N": "NEVADA CEMENT COMPANY", "City": "FERNLEY", "State": "NV", "Latitude": 39.62, "Longitude": -119.2628, "Industry_T": "Minerals", "CO2_Emissi": 453956.4}}, {"type": "Feature", "id": "4850", "geometry": {"type": "Point", "coordinates": [-86.80650199999997, 33.22275200000007]}, "properties": {"Facility_N": "Cheney Lime and Cement Company", "City": "Alabaster", "State": "AL", "Latitude": 33.222752, "Longitude": -86.806502, "Industry_T": "Minerals", "CO2_Emissi": 456955.5}}, {"type": "Feature", "id": "4854", "geometry": {"type": "Point", "coordinates": [-83.96609999999998, 39.777900000000045]}, "properties": {"Facility_N": "Fairborn Cement Company LLC", "City": "XENIA", "State": "OH", "Latitude": 39.7779, "Longitude": -83.9661, "Industry_T": "Minerals", "CO2_Emissi": 462328.0}}, {"type": "Feature", "id": "4859", "geometry": {"type": "Point", "coordinates": [-83.63329999999996, 32.41520000000003]}, "properties": {"Facility_N": "CEMEX SOUTHEAST LLC", "City": "CLINCHFIELD", "State": "GA", "Latitude": 32.4152, "Longitude": -83.6333, "Industry_T": "Minerals", "CO2_Emissi": 470364.7}}, {"type": "Feature", "id": "4866", "geometry": {"type": "Point", "coordinates": [-98.42111099999994, 29.545278000000053]}, "properties": {"Facility_N": "CAPITOL CEMENT PLANT", "City": "SAN ANTONIO", "State": "TX", "Latitude": 29.545278, "Longitude": -98.421111, "Industry_T": "Minerals", "CO2_Emissi": 482247.3}}, {"type": "Feature", "id": "4870", "geometry": {"type": "Point", "coordinates": [-106.39228299999996, 35.071319000000074]}, "properties": {"Facility_N": "GCC RIO GRANDE, INC. TIJERAS PLANT", "City": "TIJERAS", "State": "NM", "Latitude": 35.071319, "Longitude": -106.392283, "Industry_T": "Minerals", "CO2_Emissi": 484111.8}}, {"type": "Feature", "id": "4880", "geometry": {"type": "Point", "coordinates": [-83.83440799999994, 36.022505000000024]}, "properties": {"Facility_N": "CEMEX CONSTRUCTION MATERIALS ATLANTIC LLC", "City": "KNOXVILLE", "State": "TN", "Latitude": 36.022505, "Longitude": -83.834408, "Industry_T": "Minerals", "CO2_Emissi": 497094.5}}, {"type": "Feature", "id": "4884", "geometry": {"type": "Point", "coordinates": [-75.40085899999997, 40.715359000000035]}, "properties": {"Facility_N": "KEYSTONE CEMENT COMPANY", "City": "BATH", "State": "PA", "Latitude": 40.715359, "Longitude": -75.400859, "Industry_T": "Minerals", "CO2_Emissi": 501249.7}}, {"type": "Feature", "id": "4890", "geometry": {"type": "Point", "coordinates": [-96.69651999999996, 34.767540000000054]}, "properties": {"Facility_N": "HOLCIM INCORPORATED", "City": "ADA", "State": "OK", "Latitude": 34.76754, "Longitude": -96.69652, "Industry_T": "Minerals", "CO2_Emissi": 504668.3}}, {"type": "Feature", "id": "4895", "geometry": {"type": "Point", "coordinates": [-111.53169999999994, 41.06330000000003]}, "properties": {"Facility_N": "HOLCIM (US) INC. DEVIL\\S SLIDE PLANT", "City": "MORGAN", "State": "UT", "Latitude": 41.0633, "Longitude": -111.5317, "Industry_T": "Minerals", "CO2_Emissi": 509740.9}}, {"type": "Feature", "id": "4901", "geometry": {"type": "Point", "coordinates": [-95.81169999999997, 36.19410000000005]}, "properties": {"Facility_N": "EAGLE MATERIALS, INC.", "City": "TULSA", "State": "OK", "Latitude": 36.1941, "Longitude": -95.8117, "Industry_T": "Minerals", "CO2_Emissi": 514309.5}}, {"type": "Feature", "id": "4907", "geometry": {"type": "Point", "coordinates": [-80.66249999999997, 37.38280000000003]}, "properties": {"Facility_N": "LHOIST NORTH AMERICA OF VIRGINIA INC", "City": "RIPPLEMEAD", "State": "VA", "Latitude": 37.3828, "Longitude": -80.6625, "Industry_T": "Minerals", "CO2_Emissi": 519922.5}}, {"type": "Feature", "id": "4914", "geometry": {"type": "Point", "coordinates": [-82.84969999999998, 29.961600000000033]}, "properties": {"Facility_N": "SUWANNEE AMERICAN CEMENT", "City": "BRANFORD", "State": "FL", "Latitude": 29.9616, "Longitude": -82.8497, "Industry_T": "Minerals", "CO2_Emissi": 523986.0}}, {"type": "Feature", "id": "4915", "geometry": {"type": "Point", "coordinates": [-86.15521699999994, 33.733584000000064]}, "properties": {"Facility_N": "NATIONAL CEMENT COMPANY INC.", "City": "RAGLAND", "State": "AL", "Latitude": 33.733584, "Longitude": -86.155217, "Industry_T": "Minerals", "CO2_Emissi": 524967.9}}, {"type": "Feature", "id": "4923", "geometry": {"type": "Point", "coordinates": [-86.54349999999994, 33.54010000000005]}, "properties": {"Facility_N": "LEHIGH CEMENT CO LLC", "City": "LEEDS", "State": "AL", "Latitude": 33.5401, "Longitude": -86.5435, "Industry_T": "Minerals", "CO2_Emissi": 535943.3}}, {"type": "Feature", "id": "4931", "geometry": {"type": "Point", "coordinates": [-88.88116199999996, 37.216953000000046]}, "properties": {"Facility_N": "LAFARGE MIDWEST INC JOPPA PLANT", "City": "GRAND CHAIN", "State": "IL", "Latitude": 37.216953, "Longitude": -88.881162, "Industry_T": "Minerals", "CO2_Emissi": 541721.0}}, {"type": "Feature", "id": "4932", "geometry": {"type": "Point", "coordinates": [-83.20839999999998, 41.224600000000066]}, "properties": {"Facility_N": "CARMEUSE OHIO INC - MAPLEGROVE LIME PLANT", "City": "BETTSVILLE", "State": "OH", "Latitude": 41.2246, "Longitude": -83.2084, "Industry_T": "Minerals", "CO2_Emissi": 542987.1}}, {"type": "Feature", "id": "4935", "geometry": {"type": "Point", "coordinates": [-82.02535299999994, 28.760864000000026]}, "properties": {"Facility_N": "AMERICAN CEMENT COMPANY, LLC", "City": "SUMTERVILLE", "State": "FL", "Latitude": 28.760864, "Longitude": -82.025353, "Industry_T": "Minerals", "CO2_Emissi": 545770.9}}, {"type": "Feature", "id": "4940", "geometry": {"type": "Point", "coordinates": [-111.15163199999995, 32.41056000000003]}, "properties": {"Facility_N": "CalPortland Company Rillito Plant", "City": "Rillito", "State": "AZ", "Latitude": 32.41056, "Longitude": -111.151632, "Industry_T": "Minerals", "CO2_Emissi": 551070.1}}, {"type": "Feature", "id": "4947", "geometry": {"type": "Point", "coordinates": [-117.42179999999996, 44.54280000000006]}, "properties": {"Facility_N": "ASH GROVE CEMENT COMPANY-DURKEE", "City": "DURKEE", "State": "OR", "Latitude": 44.5428, "Longitude": -117.4218, "Industry_T": "Minerals", "CO2_Emissi": 570885.6}}, {"type": "Feature", "id": "4948", "geometry": {"type": "Point", "coordinates": [-86.45702999999997, 38.73907400000007]}, "properties": {"Facility_N": "LEHIGH CEMENT COMPANY LLC", "City": "MITCHELL", "State": "IN", "Latitude": 38.739074, "Longitude": -86.45703, "Industry_T": "Minerals", "CO2_Emissi": 572410.0}}, {"type": "Feature", "id": "4950", "geometry": {"type": "Point", "coordinates": [-118.36930399999994, 35.122790000000066]}, "properties": {"Facility_N": "LEHIGH SOUTHWEST CEMENT CO", "City": "TEHACHAPI", "State": "CA", "Latitude": 35.12279, "Longitude": -118.369304, "Industry_T": "Minerals", "CO2_Emissi": 573935.0}}, {"type": "Feature", "id": "4952", "geometry": {"type": "Point", "coordinates": [-92.07649999999995, 46.73100000000005]}, "properties": {"Facility_N": "GRAYMONT (WI) LLC", "City": "SUPERIOR", "State": "WI", "Latitude": 46.731, "Longitude": -92.0765, "Industry_T": "Minerals", "CO2_Emissi": 575198.1}}, {"type": "Feature", "id": "4956", "geometry": {"type": "Point", "coordinates": [-114.25019899999995, 40.82126000000005]}, "properties": {"Facility_N": "GRAYMONT WESTERN US INC PILOT PEAK", "City": "WEST WENDOVER", "State": "NV", "Latitude": 40.82126, "Longitude": -114.250199, "Industry_T": "Minerals", "CO2_Emissi": 578352.6}}, {"type": "Feature", "id": "4962", "geometry": {"type": "Point", "coordinates": [-80.42111299999993, 25.786463000000026]}, "properties": {"Facility_N": "CEMEX MIAMI", "City": "MIAMI", "State": "FL", "Latitude": 25.786463, "Longitude": -80.421113, "Industry_T": "Minerals", "CO2_Emissi": 582736.9}}, {"type": "Feature", "id": "4964", "geometry": {"type": "Point", "coordinates": [-112.19706099999996, 39.56352700000008]}, "properties": {"Facility_N": "Ash Grove Cement Company-LEAMINGTON", "City": "Nephi", "State": "UT", "Latitude": 39.563527, "Longitude": -112.197061, "Industry_T": "Minerals", "CO2_Emissi": 585111.2}}, {"type": "Feature", "id": "4974", "geometry": {"type": "Point", "coordinates": [-97.00679999999994, 32.519930000000045]}, "properties": {"Facility_N": "ASH GROVE CEMENT COMPANY", "City": "MIDLOTHIAN", "State": "TX", "Latitude": 32.51993, "Longitude": -97.0068, "Industry_T": "Minerals", "CO2_Emissi": 596799.3}}, {"type": "Feature", "id": "4994", "geometry": {"type": "Point", "coordinates": [-103.27166299999999, 44.089600000000075]}, "properties": {"Facility_N": "GCC DACOTAH", "City": "RAPID CITY", "State": "SD", "Latitude": 44.0896, "Longitude": -103.271663, "Industry_T": "Minerals", "CO2_Emissi": 621924.1}}, {"type": "Feature", "id": "5004", "geometry": {"type": "Point", "coordinates": [-86.79849999999999, 33.10430000000002]}, "properties": {"Facility_N": "ARGOS CEMENT LLC. - ROBERTA PLANT", "City": "CALERA", "State": "AL", "Latitude": 33.1043, "Longitude": -86.7985, "Industry_T": "Minerals", "CO2_Emissi": 638974.5}}, {"type": "Feature", "id": "5005", "geometry": {"type": "Point", "coordinates": [-85.34534199999996, 35.10119700000007]}, "properties": {"Facility_N": "SIGNAL MOUNTAIN CEMENT CO", "City": "CHATTANOOGA", "State": "TN", "Latitude": 35.101197, "Longitude": -85.345342, "Industry_T": "Minerals", "CO2_Emissi": 642758.4}}, {"type": "Feature", "id": "5017", "geometry": {"type": "Point", "coordinates": [-87.81563099999994, 32.51270000000005]}, "properties": {"Facility_N": "CEMEX SOUTHEAST LLC, DEMOPOLIS PLANT", "City": "DEMOPOLIS", "State": "AL", "Latitude": 32.5127, "Longitude": -87.815631, "Industry_T": "Minerals", "CO2_Emissi": 663227.9}}, {"type": "Feature", "id": "5024", "geometry": {"type": "Point", "coordinates": [-86.75945199999995, 33.17708200000004]}, "properties": {"Facility_N": "LHOIST NORTH AMERICA OF ALABAMA LLC O'NEAL PLANT", "City": "CALERA", "State": "AL", "Latitude": 33.177082, "Longitude": -86.759452, "Industry_T": "Minerals", "CO2_Emissi": 671218.6}}, {"type": "Feature", "id": "5027", "geometry": {"type": "Point", "coordinates": [-89.53849999999994, 37.26760000000007]}, "properties": {"Facility_N": "LONE STAR INDUSTRIES", "City": "CAPE GIRARDEAU", "State": "MO", "Latitude": 37.2676, "Longitude": -89.5385, "Industry_T": "Minerals", "CO2_Emissi": 673089.2}}, {"type": "Feature", "id": "5030", "geometry": {"type": "Point", "coordinates": [-118.74873199999996, 34.819863000000055]}, "properties": {"Facility_N": "NATIONAL CEMENT CO OF CALIFORNIA INC", "City": "Lebec", "State": "CA", "Latitude": 34.819863, "Longitude": -118.748732, "Industry_T": "Minerals", "CO2_Emissi": 677284.1}}, {"type": "Feature", "id": "5036", "geometry": {"type": "Point", "coordinates": [-82.43082899999996, 28.582265000000064]}, "properties": {"Facility_N": "Brooksville South Cement Plant", "City": "BROOKSVILLE", "State": "FL", "Latitude": 28.582265, "Longitude": -82.430829, "Industry_T": "Minerals", "CO2_Emissi": 686244.8}}, {"type": "Feature", "id": "5040", "geometry": {"type": "Point", "coordinates": [-95.43138599999997, 37.79716200000007]}, "properties": {"Facility_N": "MONARCH CEMENT COMPANY (THE)", "City": "HUMBOLDT", "State": "KS", "Latitude": 37.797162, "Longitude": -95.431386, "Industry_T": "Minerals", "CO2_Emissi": 690509.3}}, {"type": "Feature", "id": "5041", "geometry": {"type": "Point", "coordinates": [-115.12962499999998, 36.20400300000006]}, "properties": {"Facility_N": "Lhoist North America APEX PLANT", "City": "LAS VEGAS", "State": "NV", "Latitude": 36.204003, "Longitude": -115.129625, "Industry_T": "Minerals", "CO2_Emissi": 692994.7}}, {"type": "Feature", "id": "5045", "geometry": {"type": "Point", "coordinates": [-96.15491699999995, 41.00556500000005]}, "properties": {"Facility_N": "ASH GROVE CEMENT COMPANY-Louisville", "City": "LOUISVILLE", "State": "NE", "Latitude": 41.005565, "Longitude": -96.154917, "Industry_T": "Minerals", "CO2_Emissi": 701448.0}}, {"type": "Feature", "id": "5049", "geometry": {"type": "Point", "coordinates": [-104.62594999999999, 38.15070000000003]},