[{"type": "Feature", "id": "0", "geometry": {"type": "Point", "coordinates": [-1.0334999999999468, 48.10790000000003]}, "properties": {"X": -1.0335, "Y": 48.1079, "NAME_GUILL": "Lafarge Ciments", "LOCATION_G": "Saint-Pierre-la-Cour", "SECTOR_GUI": "Ciment", "F2003_Mt": 0.991, "F2004_Mt": 1.02, "F2005_Mt": 1.05, "F2006_Mt": 1.02, "F2007_Mt": 1.04, "F2008_Mt": 1.11, "F2009_Mt": 0.299, "F2010_Mt": 0.935, "F2011_Mt": 0.949, "Ave_Mt": 0.935, "Max_Mt": 1.11, "Min_Mt": 0.299}}, {"type": "Feature", "id": "1", "geometry": {"type": "Point", "coordinates": [0.12260000000003402, 49.49310000000003]}, "properties": {"X": 0.1226, "Y": 49.4931, "NAME_GUILL": "Lafarge Ciments (CLF)", "LOCATION_G": "Le Havre", "SECTOR_GUI": "Ciment", "F2003_Mt": 0.833, "F2004_Mt": 0.839, "F2005_Mt": 0.796, "F2006_Mt": 0.819, "F2007_Mt": 0.888, "F2008_Mt": 0.779, "F2009_Mt": 0.802, "F2010_Mt": 0.568, "F2011_Mt": 0.58, "Ave_Mt": 0.767, "Max_Mt": 0.888, "Min_Mt": 0.568}}, {"type": "Feature", "id": "2", "geometry": {"type": "Point", "coordinates": [1.7644000000000233, 50.79020000000003]}, "properties": {"X": 1.7644, "Y": 50.7902, "NAME_GUILL": "Chaux et dolomies du Boulonnais", "LOCATION_G": "Rety", "SECTOR_GUI": "Chaux", "F2003_Mt": 0.0, "F2004_Mt": 0.78, "F2005_Mt": 0.746, "F2006_Mt": 0.734, "F2007_Mt": 1.16, "F2008_Mt": 0.686, "F2009_Mt": 0.574, "F2010_Mt": 0.639, "F2011_Mt": 0.676, "Ave_Mt": 0.666, "Max_Mt": 1.16, "Min_Mt": 0.0}}, {"type": "Feature", "id": "3", "geometry": {"type": "Point", "coordinates": [0.5787000000000262, 49.48760000000004]}, "properties": {"X": 0.5787, "Y": 49.4876, "NAME_GUILL": "Exxonmobil Chemical France", "LOCATION_G": "Notre-Dame-de-Gravenchon", "SECTOR_GUI": "Combustion Chimie", "F2003_Mt": 0.548, "F2004_Mt": 1.18, "F2005_Mt": 1.2, "F2006_Mt": 1.18, "F2007_Mt": 1.2, "F2008_Mt": 0.978, "F2009_Mt": 1.11, "F2010_Mt": 1.2, "F2011_Mt": 1.22, "Ave_Mt": 1.091, "Max_Mt": 1.22, "Min_Mt": 0.548}}, {"type": "Feature", "id": "4", "geometry": {"type": "Point", "coordinates": [0.55600000000004, 49.48530000000005]}, "properties": {"X": 0.556, "Y": 49.4853, "NAME_GUILL": "Esso Raffinage SAF", "LOCATION_G": "Notre-Dame-de-Gravenchon", "SECTOR_GUI": "Raffinage", "F2003_Mt": 0.0, "F2004_Mt": 2.62, "F2005_Mt": 2.75, "F2006_Mt": 2.66, "F2007_Mt": 2.46, "F2008_Mt": 2.45, "F2009_Mt": 2.17, "F2010_Mt": 2.12, "F2011_Mt": 2.06, "Ave_Mt": 2.143, "Max_Mt": 2.75, "Min_Mt": 0.0}}, {"type": "Feature", "id": "5", "geometry": {"type": "Point", "coordinates": [4.95900000000006, 43.43890000000005]}, "properties": {"X": 4.959, "Y": 43.4389, "NAME_GUILL": "Esso Raffinage SAF", "LOCATION_G": "Fos-sur-Mer", "SECTOR_GUI": "Raffinage", "F2003_Mt": 0.801, "F2004_Mt": 0.799, "F2005_Mt": 0.675, "F2006_Mt": 0.812, "F2007_Mt": 0.824, "F2008_Mt": 0.795, "F2009_Mt": 0.571, "F2010_Mt": 0.752, "F2011_Mt": 0.661, "Ave_Mt": 0.743, "Max_Mt": 0.824, "Min_Mt": 0.571}}, {"type": "Feature", "id": "6", "geometry": {"type": "Point", "coordinates": [5.060400000000072, 43.406900000000064]}, "properties": {"X": 5.0604, "Y": 43.4069, "NAME_GUILL": "Ineos Manufacturing France", "LOCATION_G": "Martigues", "SECTOR_GUI": "Raffinage", "F2003_Mt": 1.36, "F2004_Mt": 1.35, "F2005_Mt": 1.45, "F2006_Mt": 1.39, "F2007_Mt": 1.4, "F2008_Mt": 1.25, "F2009_Mt": 1.29, "F2010_Mt": 1.18, "F2011_Mt": 1.31, "Ave_Mt": 1.331, "Max_Mt": 1.45, "Min_Mt": 1.18}}, {"type": "Feature", "id": "7", "geometry": {"type": "Point", "coordinates": [5.486300000000028, 43.48540000000003]}, "properties": {"X": 5.4863, "Y": 43.4854, "NAME_GUILL": "La SNET - Centrale de Provence", "LOCATION_G": "Meyreuil", "SECTOR_GUI": "Electricity", "F2003_Mt": 3.3, "F2004_Mt": 3.52, "F2005_Mt": 2.93, "F2006_Mt": 2.91, "F2007_Mt": 2.36, "F2008_Mt": 2.68, "F2009_Mt": 2.47, "F2010_Mt": 1.64, "F2011_Mt": 0.649, "Ave_Mt": 2.495, "Max_Mt": 3.52, "Min_Mt": 0.649}}, {"type": "Feature", "id": "8", "geometry": {"type": "Point", "coordinates": [3.32710000000003, 50.370100000000036]}, "properties": {"X": 3.3271, "Y": 50.3701, "NAME_GUILL": "La SNET - Centrale d'Hornaing", "LOCATION_G": "Hornaing", "SECTOR_GUI": "Electricity", "F2003_Mt": 1.31, "F2004_Mt": 1.07, "F2005_Mt": 0.93, "F2006_Mt": 0.749, "F2007_Mt": 0.95, "F2008_Mt": 0.82, "F2009_Mt": 0.526, "F2010_Mt": 0.223, "F2011_Mt": 0.252, "Ave_Mt": 0.759, "Max_Mt": 1.31, "Min_Mt": 0.223}}, {"type": "Feature", "id": "9", "geometry": {"type": "Point", "coordinates": [6.698200000000043, 49.112100000000055]}, "properties": {"X": 6.6982, "Y": 49.1121, "NAME_GUILL": "La SNET - Centrale +mile Huchet", "LOCATION_G": "Saint-Avold", "SECTOR_GUI": "Electricity", "F2003_Mt": 0.0, "F2004_Mt": 0.0, "F2005_Mt": 0.0, "F2006_Mt": 3.54, "F2007_Mt": 3.65, "F2008_Mt": 3.83, "F2009_Mt": 2.99, "F2010_Mt": 3.77, "F2011_Mt": 2.46, "Ave_Mt": 2.249, "Max_Mt": 3.83, "Min_Mt": 0.0}}, {"type": "Feature", "id": "10", "geometry": {"type": "Point", "coordinates": [4.354300000000023, 46.67720000000003]}, "properties": {"X": 4.3543, "Y": 46.6772, "NAME_GUILL": "La SNET - Centrale de Lucy", "LOCATION_G": "Montceau-les-Mines", "SECTOR_GUI": "Electricity", "F2003_Mt": 0.83, "F2004_Mt": 0.855, "F2005_Mt": 0.766, "F2006_Mt": 0.895, "F2007_Mt": 0.735, "F2008_Mt": 0.844, "F2009_Mt": 0.552, "F2010_Mt": 0.224, "F2011_Mt": 0.099, "Ave_Mt": 0.644, "Max_Mt": 0.895, "Min_Mt": 0.099}}, {"type": "Feature", "id": "11", "geometry": {"type": "Point", "coordinates": [5.181100000000072, 43.47860000000003]}, "properties": {"X": 5.1811, "Y": 43.4786, "NAME_GUILL": "Shell PTtrochimie MTditerranTe (Raffinerie de Berre)", "LOCATION_G": "Berre-l'+tang", "SECTOR_GUI": "Raffinage", "F2003_Mt": 0.872, "F2004_Mt": 0.907, "F2005_Mt": 0.982, "F2006_Mt": 0.928, "F2007_Mt": 0.8, "F2008_Mt": 0.837, "F2009_Mt": 0.769, "F2010_Mt": 0.783, "F2011_Mt": 0.668, "Ave_Mt": 0.838, "Max_Mt": 0.982, "Min_Mt": 0.668}}, {"type": "Feature", "id": "12", "geometry": {"type": "Point", "coordinates": [-0.6060999999999694, 43.41230000000007]}, "properties": {"X": -0.6061, "Y": 43.4123, "NAME_GUILL": "Total E&P France", "LOCATION_G": "Lacq", "SECTOR_GUI": "Combustion Chimie", "F2003_Mt": 0.583, "F2004_Mt": 0.484, "F2005_Mt": 0.682, "F2006_Mt": 0.721, "F2007_Mt": 0.715, "F2008_Mt": 0.704, "F2009_Mt": 0.649, "F2010_Mt": 0.313, "F2011_Mt": 0.225, "Ave_Mt": 0.564, "Max_Mt": 0.721, "Min_Mt": 0.225}}, {"type": "Feature", "id": "13", "geometry": {"type": "Point", "coordinates": [4.926100000000076, 43.44040000000007]}, "properties": {"X": 4.9261, "Y": 43.4404, "NAME_GUILL": "Arcelor MTditerranTe", "LOCATION_G": "Fos-sur-Mer", "SECTOR_GUI": "Acier", "F2003_Mt": 8.75, "F2004_Mt": 8.59, "F2005_Mt": 8.49, "F2006_Mt": 8.73, "F2007_Mt": 7.95, "F2008_Mt": 6.46, "F2009_Mt": 0.1, "F2010_Mt": 6.13, "F2011_Mt": 5.43, "Ave_Mt": 6.737, "Max_Mt": 8.75, "Min_Mt": 0.1}}, {"type": "Feature", "id": "14", "geometry": {"type": "Point", "coordinates": [0.25360000000006266, 49.50560000000007]}, "properties": {"X": 0.2536, "Y": 49.5056, "NAME_GUILL": "Total Petrochemicals France", "LOCATION_G": "Gonfreville-l'Orcher", "SECTOR_GUI": "Combustion Chimie", "F2003_Mt": 1.17, "F2004_Mt": 1.16, "F2005_Mt": 1.13, "F2006_Mt": 1.29, "F2007_Mt": 1.29, "F2008_Mt": 1.1, "F2009_Mt": 1.24, "F2010_Mt": 1.13, "F2011_Mt": 0.969, "Ave_Mt": 1.164, "Max_Mt": 1.29, "Min_Mt": 0.969}}, {"type": "Feature", "id": "15", "geometry": {"type": "Point", "coordinates": [6.721300000000042, 49.08460000000008]}, "properties": {"X": 6.7213, "Y": 49.0846, "NAME_GUILL": "Total Petrochemicals France", "LOCATION_G": "Saint-Avold", "SECTOR_GUI": "Combustion Chimie", "F2003_Mt": 0.0, "F2004_Mt": 0.394, "F2005_Mt": 1.32, "F2006_Mt": 1.45, "F2007_Mt": 1.26, "F2008_Mt": 1.24, "F2009_Mt": 0.46, "F2010_Mt": 0.489, "F2011_Mt": 0.648, "Ave_Mt": 0.807, "Max_Mt": 1.45, "Min_Mt": 0.0}}, {"type": "Feature", "id": "16", "geometry": {"type": "Point", "coordinates": [2.2719000000000733, 51.01840000000004]}, "properties": {"X": 2.2719, "Y": 51.0184, "NAME_GUILL": "Arcelor Atlantique et Lorraine", "LOCATION_G": "Grande-Synthe", "SECTOR_GUI": "Acier", "F2003_Mt": 11.2, "F2004_Mt": 11.9, "F2005_Mt": 11.5, "F2006_Mt": 11.6, "F2007_Mt": 12.2, "F2008_Mt": 11.5, "F2009_Mt": 9.32, "F2010_Mt": 10.4, "F2011_Mt": 10.9, "Ave_Mt": 11.169, "Max_Mt": 12.2, "Min_Mt": 9.32}}, {"type": "Feature", "id": "17", "geometry": {"type": "Point", "coordinates": [6.1030000000000655, 49.327600000000075]}, "properties": {"X": 6.103, "Y": 49.3276, "NAME_GUILL": "Arcelor Atlantique et Lorraine", "LOCATION_G": "Florange", "SECTOR_GUI": "Acier", "F2003_Mt": 0.0, "F2004_Mt": 4.72, "F2005_Mt": 4.35, "F2006_Mt": 4.74, "F2007_Mt": 4.32, "F2008_Mt": 4.15, "F2009_Mt": 1.66, "F2010_Mt": 3.1, "F2011_Mt": 2.47, "Ave_Mt": 3.279, "Max_Mt": 4.74, "Min_Mt": 0.0}}, {"type": "Feature", "id": "18", "geometry": {"type": "Point", "coordinates": [1.03550000000007, 49.38160000000005]}, "properties": {"X": 1.0355, "Y": 49.3816, "NAME_GUILL": "PTtroplus Raffinage Petit-Couronne SAS", "LOCATION_G": "Petit-Couronne", "SECTOR_GUI": "Raffinage", "F2003_Mt": 1.37, "F2004_Mt": 1.47, "F2005_Mt": 1.42, "F2006_Mt": 1.33, "F2007_Mt": 1.33, "F2008_Mt": 1.46, "F2009_Mt": 1.27, "F2010_Mt": 1.27, "F2011_Mt": 1.21, "Ave_Mt": 1.348, "Max_Mt": 1.47, "Min_Mt": 1.21}}, {"type": "Feature", "id": "19", "geometry": {"type": "Point", "coordinates": [0.21100000000006958, 49.504200000000026]}, "properties": {"X": 0.211, "Y": 49.5042, "NAME_GUILL": "Total France - Raffinerie de Normandie", "LOCATION_G": "Harfleur", "SECTOR_GUI": "Raffinage", "F2003_Mt": 2.82, "F2004_Mt": 3.05, "F2005_Mt": 2.99, "F2006_Mt": 3.52, "F2007_Mt": 3.79, "F2008_Mt": 3.94, "F2009_Mt": 3.9, "F2010_Mt": 3.4, "F2011_Mt": 3.51, "Ave_Mt": 3.436, "Max_Mt": 3.94, "Min_Mt": 2.82}}, {"type": "Feature", "id": "20", "geometry": {"type": "Point", "coordinates": [5.174000000000035, 43.38510000000008]}, "properties": {"X": 5.174, "Y": 43.3851, "NAME_GUILL": "Total France - Raffinerie de Provence", "LOCATION_G": "ChGteauneuf-les-Martigues", "SECTOR_GUI": "Raffinage", "F2003_Mt": 1.34, "F2004_Mt": 1.26, "F2005_Mt": 1.49, "F2006_Mt": 1.17, "F2007_Mt": 1.43, "F2008_Mt": 1.23, "F2009_Mt": 1.36, "F2010_Mt": 1.21, "F2011_Mt": 1.26, "Ave_Mt": 1.306, "Max_Mt": 1.49, "Min_Mt": 1.17}}, {"type": "Feature", "id": "21", "geometry": {"type": "Point", "coordinates": [2.226000000000056, 51.010800000000074]}, "properties": {"X": 2.226, "Y": 51.0108, "NAME_GUILL": "Total France - Raffinerie des Flandres", "LOCATION_G": "Loon-Plage", "SECTOR_GUI": "Raffinage", "F2003_Mt": 1.26, "F2004_Mt": 1.08, "F2005_Mt": 1.3, "F2006_Mt": 1.3, "F2007_Mt": 1.36, "F2008_Mt": 1.41, "F2009_Mt": 1.08, "F2010_Mt": 0.301, "F2011_Mt": 0.088, "Ave_Mt": 1.02, "Max_Mt": 1.41, "Min_Mt": 0.088}}, {"type": "Feature", "id": "22", "geometry": {"type": "Point", "coordinates": [2.904700000000048, 48.60660000000007]}, "properties": {"X": 2.9047, "Y": 48.6066, "NAME_GUILL": "Total France", "LOCATION_G": "Mormant", "SECTOR_GUI": "Raffinage", "F2003_Mt": 0.85, "F2004_Mt": 0.873, "F2005_Mt": 0.773, "F2006_Mt": 0.806, "F2007_Mt": 0.866, "F2008_Mt": 0.751, "F2009_Mt": 0.885, "F2010_Mt": 0.804, "F2011_Mt": 0.735, "Ave_Mt": 0.816, "Max_Mt": 0.885, "Min_Mt": 0.735}}, {"type": "Feature", "id": "23", "geometry": {"type": "Point", "coordinates": [-2.0629999999999313, 47.316500000000076]}, "properties": {"X": -2.063, "Y": 47.3165, "NAME_GUILL": "Total France", "LOCATION_G": "Donges", "SECTOR_GUI": "Raffinage", "F2003_Mt": 1.28, "F2004_Mt": 1.44, "F2005_Mt": 1.31, "F2006_Mt": 1.45, "F2007_Mt": 1.38, "F2008_Mt": 1.49, "F2009_Mt": 1.31, "F2010_Mt": 1.25, "F2011_Mt": 1.22, "Ave_Mt": 1.348, "Max_Mt": 1.49, "Min_Mt": 1.22}}, {"type": "Feature", "id": "24", "geometry": {"type": "Point", "coordinates": [4.871900000000039, 45.66510000000005]}, "properties": {"X": 4.8719, "Y": 45.6651, "NAME_GUILL": "Total France", "LOCATION_G": "Feyzin", "SECTOR_GUI": "Raffinage", "F2003_Mt": 1.32, "F2004_Mt": 1.24, "F2005_Mt": 1.27, "F2006_Mt": 1.37, "F2007_Mt": 1.18, "F2008_Mt": 1.34, "F2009_Mt": 1.17, "F2010_Mt": 1.17, "F2011_Mt": 1.19, "Ave_Mt": 1.25, "Max_Mt": 1.37, "Min_Mt": 1.17}}, {"type": "Feature", "id": "25", "geometry": {"type": "Point", "coordinates": [5.0586000000000695, 43.39140000000003]}, "properties": {"X": 5.0586, "Y": 43.3914, "NAME_GUILL": "Naphtachimie", "LOCATION_G": "Martigues", "SECTOR_GUI": "Combustion Chimie", "F2003_Mt": 1.72, "F2004_Mt": 1.0, "F2005_Mt": 1.04, "F2006_Mt": 1.68, "F2007_Mt": 1.77, "F2008_Mt": 1.71, "F2009_Mt": 1.61, "F2010_Mt": 1.72, "F2011_Mt": 1.74, "Ave_Mt": 1.554, "Max_Mt": 1.77, "Min_Mt": 1.0}}, {"type": "Feature", "id": "26", "geometry": {"type": "Point", "coordinates": [0.12040000000007467, 49.51470000000006]}, "properties": {"X": 0.1204, "Y": 49.5147, "NAME_GUILL": "EDF", "LOCATION_G": "Le Havre", "SECTOR_GUI": "Electricity", "F2003_Mt": 0.0, "F2004_Mt": 3.21, "F2005_Mt": 3.15, "F2006_Mt": 2.33, "F2007_Mt": 4.05, "F2008_Mt": 4.05, "F2009_Mt": 3.19, "F2010_Mt": 3.37, "F2011_Mt": 2.96, "Ave_Mt": 2.923, "Max_Mt": 4.05, "Min_Mt": 0.0}}, {"type": "Feature", "id": "27", "geometry": {"type": "Point", "coordinates": [2.3735000000000355, 48.79120000000006]}, "properties": {"X": 2.3735, "Y": 48.7912, "NAME_GUILL": "EDF", "LOCATION_G": "Vitry-sur-Seine", "SECTOR_GUI": "Electricity", "F2003_Mt": 1.35, "F2004_Mt": 1.17, "F2005_Mt": 1.45, "F2006_Mt": 0.839, "F2007_Mt": 1.35, "F2008_Mt": 0.955, "F2009_Mt": 1.33, "F2010_Mt": 1.1, "F2011_Mt": 0.609, "Ave_Mt": 1.128, "Max_Mt": 1.45, "Min_Mt": 0.609}}, {"type": "Feature", "id": "28", "geometry": {"type": "Point", "coordinates": [6.048500000000047, 48.88990000000007]}, "properties": {"X": 6.0485, "Y": 48.8899, "NAME_GUILL": "EDF", "LOCATION_G": "Pont-a-Mousson", "SECTOR_GUI": "Electricity", "F2003_Mt": 2.35, "F2004_Mt": 2.49, "F2005_Mt": 2.77, "F2006_Mt": 2.43, "F2007_Mt": 2.51, "F2008_Mt": 1.91, "F2009_Mt": 2.33, "F2010_Mt": 2.61, "F2011_Mt": 2.06, "Ave_Mt": 2.384, "Max_Mt": 2.77, "Min_Mt": 1.91}}, {"type": "Feature", "id": "29", "geometry": {"type": "Point", "coordinates": [-1.893199999999979, 47.28860000000003]}, "properties": {"X": -1.8932, "Y": 47.2886, "NAME_GUILL": "EDF", "LOCATION_G": "Cordemais", "SECTOR_GUI": "Electricity", "F2003_Mt": 4.04, "F2004_Mt": 2.56, "F2005_Mt": 5.27, "F2006_Mt": 4.64, "F2007_Mt": 4.79, "F2008_Mt": 3.81, "F2009_Mt": 5.04, "F2010_Mt": 4.97, "F2011_Mt": 4.02, "Ave_Mt": 4.349, "Max_Mt": 5.27, "Min_Mt": 2.56}}, {"type": "Feature", "id": "30", "geometry": {"type": "Point", "coordinates": [1.7662000000000262, 48.97090000000003]}, "properties": {"X": 1.7662, "Y": 48.9709, "NAME_GUILL": "EDF", "LOCATION_G": "Porcheville", "SECTOR_GUI": "Electricity", "F2003_Mt": 0.79, "F2004_Mt": 0.599, "F2005_Mt": 0.999, "F2006_Mt": 0.95, "F2007_Mt": 0.676, "F2008_Mt": 0.752, "F2009_Mt": 0.556, "F2010_Mt": 0.663, "F2011_Mt": 0.167, "Ave_Mt": 0.684, "Max_Mt": 0.999, "Min_Mt": 0.167}}, {"type": "Feature", "id": "31", "geometry": {"type": "Point", "coordinates": [6.13450000000006, 49.15030000000007]}, "properties": {"X": 6.1345, "Y": 49.1503, "NAME_GUILL": "EDF", "LOCATION_G": "Woippy", "SECTOR_GUI": "Electricity", "F2003_Mt": 1.43, "F2004_Mt": 1.57, "F2005_Mt": 1.99, "F2006_Mt": 1.83, "F2007_Mt": 1.7, "F2008_Mt": 1.2, "F2009_Mt": 1.1, "F2010_Mt": 1.39, "F2011_Mt": 0.625, "Ave_Mt": 1.426, "Max_Mt": 1.99, "Min_Mt": 0.625}}, {"type": "Feature", "id": "32", "geometry": {"type": "Point", "coordinates": [2.2351000000000454, 50.98540000000003]}, "properties": {"X": 2.2351, "Y": 50.9854, "NAME_GUILL": "Polimeri Europa France SAS (ex-Copenor)", "LOCATION_G": "Mardick", "SECTOR_GUI": "Combustion Chimie", "F2003_Mt": 0.0, "F2004_Mt": 0.38, "F2005_Mt": 0.424, "F2006_Mt": 0.684, "F2007_Mt": 0.698, "F2008_Mt": 0.576, "F2009_Mt": 0.599, "F2010_Mt": 0.545, "F2011_Mt": 0.59, "Ave_Mt": 0.5, "Max_Mt": 0.698, "Min_Mt": 0.0}}, {"type": "Feature", "id": "33", "geometry": {"type": "Point", "coordinates": [7.354300000000023, 43.79930000000007]}, "properties": {"X": 7.3543, "Y": 43.7993, "NAME_GUILL": "Vicat (usine de Peille)", "LOCATION_G": "Blausasc", "SECTOR_GUI": "Ciment", "F2003_Mt": 0.594, "F2004_Mt": 0.542, "F2005_Mt": 0.617, "F2006_Mt": 0.722, "F2007_Mt": 0.771, "F2008_Mt": 0.577, "F2009_Mt": 0.196, "F2010_Mt": 0.543, "F2011_Mt": 0.53, "Ave_Mt": 0.566, "Max_Mt": 0.771, "Min_Mt": 0.196}}, {"type": "Feature", "id": "34", "geometry": {"type": "Point", "coordinates": [5.396900000000073, 45.808200000000056]}, "properties": {"X": 5.3969, "Y": 45.8082, "NAME_GUILL": "Vicat", "LOCATION_G": "Montalieu-Vercieu", "SECTOR_GUI": "Ciment", "F2003_Mt": 0.965, "F2004_Mt": 0.851, "F2005_Mt": 0.898, "F2006_Mt": 0.935, "F2007_Mt": 0.878, "F2008_Mt": 0.958, "F2009_Mt": 0.824, "F2010_Mt": 0.886, "F2011_Mt": 0.99, "Ave_Mt": 0.909, "Max_Mt": 0.99, "Min_Mt": 0.824}}, {"type": "Feature", "id": "35", "geometry": {"type": "Point", "coordinates": [-0.1421999999999457, 46.81850000000003]}, "properties": {"X": -0.1422, "Y": 46.8185, "NAME_GUILL": "Ciments Calcia", "LOCATION_G": "Airvault", "SECTOR_GUI": "Ciment", "F2003_Mt": 0.861, "F2004_Mt": 0.776, "F2005_Mt": 0.764, "F2006_Mt": 0.755, "F2007_Mt": 0.752, "F2008_Mt": 0.702, "F2009_Mt": 0.66, "F2010_Mt": 0.669, "F2011_Mt": 0.691, "Ave_Mt": 0.737, "Max_Mt": 0.861, "Min_Mt": 0.66}}, {"type": "Feature", "id": "36", "geometry": {"type": "Point", "coordinates": [4.581800000000044, 48.71640000000008]}, "properties": {"X": 4.5818, "Y": 48.7164, "NAME_GUILL": "Ciments Calcia (usine de Couvrot)", "LOCATION_G": "Vitry-le-Frantois", "SECTOR_GUI": "Ciment", "F2003_Mt": 0.0, "F2004_Mt": 0.975, "F2005_Mt": 0.857, "F2006_Mt": 0.836, "F2007_Mt": 0.895, "F2008_Mt": 0.725, "F2009_Mt": 0.814, "F2010_Mt": 0.751, "F2011_Mt": 0.839, "Ave_Mt": 0.744, "Max_Mt": 0.975, "Min_Mt": 0.0}}, {"type": "Feature", "id": "37", "geometry": {"type": "Point", "coordinates": [6.035800000000052, 48.91220000000004]}, "properties": {"X": 6.0358, "Y": 48.9122, "NAME_GUILL": "Saint-Gobain PAM", "LOCATION_G": "Pont-a-Mousson", "SECTOR_GUI": "Acier", "F2003_Mt": 1.1, "F2004_Mt": 0.944, "F2005_Mt": 0.934, "F2006_Mt": 1.06, "F2007_Mt": 1.06, "F2008_Mt": 1.08, "F2009_Mt": 0.063, "F2010_Mt": 0.879, "F2011_Mt": 0.713, "Ave_Mt": 0.87, "Max_Mt": 1.1, "Min_Mt": 0.063}}, {"type": "Feature", "id": "38", "geometry": {"type": "Point", "coordinates": [5.184500000000071, 43.45890000000003]}, "properties": {"X": 5.1845, "Y": 43.4589, "NAME_GUILL": "Shell PTtrochimie MTditerranTe - Usine chimique de l'Aubette", "LOCATION_G": "Berre-l'+tang", "SECTOR_GUI": "Combustion Chimie", "F2003_Mt": 0.0, "F2004_Mt": 0.897, "F2005_Mt": 1.14, "F2006_Mt": 1.18, "F2007_Mt": 1.18, "F2008_Mt": 1.11, "F2009_Mt": 1.03, "F2010_Mt": 1.01, "F2011_Mt": 1.03, "Ave_Mt": 0.953, "Max_Mt": 1.18, "Min_Mt": 0.0}}]